{
    "maps": [
    {
        "name": "ppDB3",
        "map": "d1d/4f138275e5419b8788927a36/$t",
        "lat": 54.55176,
        "lon": -3.40602
    },
    {
        "name": "ppleg5",
        "map": "d1d/b2777d1347a39a94d12f2d4d/$t",
        "lat": 54.55031,
        "lon": -3.40538
    },
    {
        "name": "ppDB2",
        "map": "d1d/a4e1f7c184e59af1fe9831a7/$t",
        "lat": 54.55167,
        "lon": -3.41416
    },
    {
        "name": "ppleg4",
        "map": "d1d/0122b3ca31dcc7fe2110882c/$t",
        "lat": 54.55165,
        "lon": -3.41449
    },
    {
        "name": "ppleg3",
        "map": "d1d/2e91fd5693d697c83fb9a624/$t",
        "lat": 54.55229,
        "lon": -3.41501
    },
    {
        "name": "ppDB1",
        "map": "d1d/6d540eb6b60303230657fee7/$t",
        "lat": 54.5523,
        "lon": -3.4127
    },
    {
        "name": "ppleg2",
        "map": "d1d/733ecfe4797770fd4e7db7f9/$t",
        "lat": 54.55174,
        "lon": -3.41143
    },
    {
        "name": "ppleg1",
        "map": "d1d/49e647c89f23ce3cc7ca793c/$t",
        "lat": 54.55171,
        "lon": -3.41153
    },
    {
        "name": "primiero2024middle",
        "map": "d1d/91228b1e5630802012913bd2/$t",
        "lat": 46.29081,
        "lon": 11.77297
    },
    {
        "name": "2024-09-07NMmellomH21",
        "map": "d1d/8bb02eab0573138691c7a049/$t",
        "lat": 63.8568,
        "lon": 11.57856
    },
    {
        "name": "2024-09-07NMmellomD21",
        "map": "d1d/bbaad4dc1492b6dc19365cad/$t",
        "lat": 63.85687,
        "lon": 11.57608
    },
    {
        "name": "2024-09-07NMmellomH1920",
        "map": "d1d/8c01f2aa03050b1b43914122/$t",
        "lat": 63.85687,
        "lon": 11.57608
    },
    {
        "name": "2024-09-07NMmellomH1718",
        "map": "d1d/93ba388dbc09954476f77866/$t",
        "lat": 63.85687,
        "lon": 11.57608
    },
    {
        "name": "2024-09-07NMmellomD1920",
        "map": "d1d/1a6db7c1a154b2255b65aaf9/$t",
        "lat": 63.85687,
        "lon": 11.57608
    },
    {
        "name": "2024-09-07NMmellomD1718",
        "map": "d1d/a1c3d3a76ba8b1734461ec80/$t",
        "lat": 63.85687,
        "lon": 11.57608
    },
    {
        "name": "2024-09-05NMlangH21",
        "map": "d1d/d2a923578f1dcfaceae92c94/$t",
        "lat": 63.85752,
        "lon": 11.53255
    },
    {
        "name": "2024-09-05NMlangH1718",
        "map": "d1d/d3ca6d02c067d55e4e28fae1/$t",
        "lat": 63.85727,
        "lon": 11.54666
    },
    {
        "name": "2024-09-05NMlangD1718",
        "map": "d1d/83dcf9f19dc7c5ce72695743/$t",
        "lat": 63.85727,
        "lon": 11.54666
    },
    {
        "name": "2024-09-05NMlangD21",
        "map": "d1d/b1f941f9fea8292a4ce20c86/$t",
        "lat": 63.85752,
        "lon": 11.53255
    },
    {
        "name": "2024-09-05NMlangH1920",
        "map": "d1d/9739396194a7322d1ec2cb08/$t",
        "lat": 63.85727,
        "lon": 11.54666
    },
    {
        "name": "2024-09-05NMlangD1920",
        "map": "d1d/7f4fae42671a6985e06c6c6f/$t",
        "lat": 63.85727,
        "lon": 11.54666
    },
    {
        "name": "kLKCqg",
        "map": "d1d/740486d1033dbb296a0103ae/$t",
        "lat": 50.53185,
        "lon": 1.58548
    },
    {
        "name": "CfLongue2024-H21",
        "map": "d1d/b1591bd890efef3080c5ea37/$t",
        "lat": 47.12387,
        "lon": 5.9898
    },
    {
        "name": "CfLongue2024-D21",
        "map": "d1d/2e1f048d5e20cfd6d887420e/$t",
        "lat": 47.12387,
        "lon": 5.9898
    },
    {
        "name": "CfLongue2024-H20",
        "map": "d1d/7c565f6cd93ab34185892146/$t",
        "lat": 47.1243,
        "lon": 5.99019
    },
    {
        "name": "CfLongue2024-D20",
        "map": "d1d/e85dd405c4a2d4759e22962d/$t",
        "lat": 47.1243,
        "lon": 5.99019
    },
    {
        "name": "CfRelais2024-D21-2",
        "map": "d1d/7ba7f2d46db47e0b36df9e09/$t",
        "lat": 47.13545,
        "lon": 5.99003
    },
    {
        "name": "CfRelais2024-D21-1",
        "map": "d1d/7ba7f2d46db47e0b36df9e09/$t",
        "lat": 47.13545,
        "lon": 5.99003
    },
    {
        "name": "CfRelais2024-D21-3",
        "map": "d1d/7ba7f2d46db47e0b36df9e09/$t",
        "lat": 47.13545,
        "lon": 5.99003
    },
    {
        "name": "CfRelais2024-H21-1",
        "map": "d1d/a41f432ec4debd58ca7cd77c/$t",
        "lat": 47.13545,
        "lon": 5.99003
    },
    {
        "name": "CfRelais2024-H21-2",
        "map": "d1d/a41f432ec4debd58ca7cd77c/$t",
        "lat": 47.13545,
        "lon": 5.99003
    },
    {
        "name": "CfRelais2024-H21-3",
        "map": "d1d/a41f432ec4debd58ca7cd77c/$t",
        "lat": 47.13545,
        "lon": 5.99003
    },
    {
        "name": "EOC2024RW3",
        "map": "d1d/ac06e26d6302d1558b6c569a/$t",
        "lat": 47.4735,
        "lon": 18.38822
    },
    {
        "name": "EOC2024RW2",
        "map": "d1d/89a0a82c489176645445717f/$t",
        "lat": 47.4735,
        "lon": 18.38822
    },
    {
        "name": "EOC2024RW1",
        "map": "d1d/89a0a82c489176645445717f/$t",
        "lat": 47.4735,
        "lon": 18.38822
    },
    {
        "name": "EOC2024RM3",
        "map": "d1d/2c10373ab48636c7d266a894/$t",
        "lat": 47.47354,
        "lon": 18.38754
    },
    {
        "name": "EOC2024RM2",
        "map": "d1d/7d4309b2c0160870da7f9587/$t",
        "lat": 47.47354,
        "lon": 18.38756
    },
    {
        "name": "EOC2024RM1",
        "map": "d1d/7d4309b2c0160870da7f9587/$t",
        "lat": 47.47354,
        "lon": 18.38756
    },
    {
        "name": "EOC2024LFM",
        "map": "d1d/b970646113aa5ce92b8af4f0/EOC2024_LongF_Men_all_spectators.gif",
        "lat": 47.36597,
        "lon": 18.29396
    },
    {
        "name": "2024-08-18-NMultralang-D21",
        "map": "d1d/01e4e9b6a56b4523ea6a11eb/$t",
        "lat": 59.89022,
        "lon": 10.98337
    },
    {
        "name": "2024-08-18-NMultralang-H1718",
        "map": "d1d/bce371996cd7b1596ba885fc/$t",
        "lat": 59.8902,
        "lon": 10.98333
    },
    {
        "name": "EOC2024LFW",
        "map": "d1d/0e4272f26ba3956f37e95560/Women300.gif",
        "lat": 47.36597,
        "lon": 18.29396
    },
    {
        "name": "2024-08-18-NMultralang-D1920",
        "map": "d1d/df20934d8c28dd07fde79e4b/$t",
        "lat": 59.89001,
        "lon": 10.98371
    },
    {
        "name": "2024-08-18-NMultralang-D1718",
        "map": "d1d/2252aa6bdaeb733dcb5f02cc/$t",
        "lat": 59.89009,
        "lon": 10.98384
    },
    {
        "name": "2024-08-18-NMultralang-H1920",
        "map": "d1d/1cb2156b3967c2ce6a4c9efc/$t",
        "lat": 59.89015,
        "lon": 10.98323
    },
    {
        "name": "2024-08-18-NMultralang-H21",
        "map": "d1d/db202a4c80d5c42850415022/$t",
        "lat": 59.89032,
        "lon": 10.98334
    },
    {
        "name": "EOC2024MFM",
        "map": "d1d/12163a1d25c5d8fb14f3c591/$t",
        "lat": 47.35507,
        "lon": 18.29698
    },
    {
        "name": "EOC2024MFW",
        "map": "d1d/d4406d936d6916bf384a74d1/$t",
        "lat": 47.35507,
        "lon": 18.29698
    },
    {
        "name": "2024-08-17-NCmellom-H1718",
        "map": "d1d/bb9083cc82f5b67169ed5b74/$t",
        "lat": 59.89019,
        "lon": 10.98315
    },
    {
        "name": "2024-08-17-NCmellom-D1718",
        "map": "d1d/5575c813f45e449f292b7164/$t",
        "lat": 59.89005,
        "lon": 10.98306
    },
    {
        "name": "2024-08-17-NCmellom-H21",
        "map": "d1d/3935fc50bdb898f75cb250e3/$t",
        "lat": 59.89024,
        "lon": 10.98305
    },
    {
        "name": "2024-08-17-NCmellom-D21",
        "map": "d1d/b8304fcdd5d4bb64095088ad/$t",
        "lat": 59.89015,
        "lon": 10.98364
    },
    {
        "name": "2024-08-17-NCmellom-D1920",
        "map": "d1d/d752d8a03323133c7f75eab9/$t",
        "lat": 59.89001,
        "lon": 10.98315
    },
    {
        "name": "2024-08-17-NCmellom-H1920",
        "map": "d1d/0b4fe351bbe2864e72425c53/$t",
        "lat": 59.88992,
        "lon": 10.9839
    },
    {
        "name": "EOC2024MQW2",
        "map": "d1d/c3e7b79ea0a09986519ed531/$t",
        "lat": 47.35628,
        "lon": 18.38067
    },
    {
        "name": "EOC2024MQW1",
        "map": "d1d/9a14209e5c1b7bce49018bb2/$t",
        "lat": 47.35628,
        "lon": 18.38067
    },
    {
        "name": "EOC2024MQW3",
        "map": "d1d/b482b600cafc8a60103178ab/$t",
        "lat": 47.35628,
        "lon": 18.38067
    },
    {
        "name": "EOC2024MQM3",
        "map": "d1d/013cce1e4643fafee6382e00/$t",
        "lat": 47.35628,
        "lon": 18.38067
    },
    {
        "name": "EOC2024MQM2",
        "map": "d1d/2587f13fb80e6dda18818b62/$t",
        "lat": 47.35628,
        "lon": 18.38067
    },
    {
        "name": "EOC2024MQM1",
        "map": "d1d/6819b947a73d798c37152f4b/$t",
        "lat": 47.35628,
        "lon": 18.38067
    },
    {
        "name": "LLz03g",
        "map": "d1d/a7b369f4db12d483c81f8135/$t",
        "lat": 59.45269,
        "lon": 10.71
    },
    {
        "name": "Yjhi6A",
        "map": "d1d/c560c7887b0c2197de66110e/$t",
        "lat": 59.45291,
        "lon": 10.7103
    },
    {
        "name": "2024BG3W21E",
        "map": "d1d/f4fe7fe2310f0a69cd1510b3/$t",
        "lat": 42.74925,
        "lon": 25.24197
    },
    {
        "name": "2024BG3M21E",
        "map": "d1d/90d2b1e4553f5192c4204186/$t",
        "lat": 42.74922,
        "lon": 25.24198
    },
    {
        "name": "2024BG3W21A",
        "map": "d1d/08da3b78f7897f76030372e1/$t",
        "lat": 42.74925,
        "lon": 25.24197
    },
    {
        "name": "2024BG3M21A",
        "map": "d1d/88627d39a04729425f3dd162/$t",
        "lat": 42.74925,
        "lon": 25.24197
    },
    {
        "name": "2024BG3W16",
        "map": "d1d/84d9d0f1435a1462e66b5674/$t",
        "lat": 42.74925,
        "lon": 25.24197
    },
    {
        "name": "2024BG3M16",
        "map": "d1d/92fb6d46ab67921c5655a00e/$t",
        "lat": 42.74925,
        "lon": 25.24197
    },
    {
        "name": "2024BG3W18",
        "map": "d1d/dd2330d1ebb62468bbc8a4a5/$t",
        "lat": 42.74925,
        "lon": 25.24197
    },
    {
        "name": "2024BG3M18",
        "map": "d1d/02c74cde0973889a7f181c89/$t",
        "lat": 42.74925,
        "lon": 25.24197
    },
    {
        "name": "2024BG3W20",
        "map": "d1d/d8147fd8665cd718b5715e96/$t",
        "lat": 42.74925,
        "lon": 25.24197
    },
    {
        "name": "2024BG3M20",
        "map": "d1d/60620b93a6a55e120244fecc/$t",
        "lat": 42.74925,
        "lon": 25.24197
    },
    {
        "name": "2024BG2M21E",
        "map": "d1d/1cc386eefa74735ce5a31d0e/$t",
        "lat": 42.76526,
        "lon": 25.24595
    },
    {
        "name": "2024BG2W21E",
        "map": "d1d/24fd90c90872ca85fe67aac0/$t",
        "lat": 42.76526,
        "lon": 25.24595
    },
    {
        "name": "2024BG2M20",
        "map": "d1d/68272b2f77722450bfe47450/$t",
        "lat": 42.76526,
        "lon": 25.24595
    },
    {
        "name": "2024BG2W20",
        "map": "d1d/277273a185b5dda0ef9fbcc5/$t",
        "lat": 42.76526,
        "lon": 25.24595
    },
    {
        "name": "2024BG2M18",
        "map": "d1d/280e54543fa615713e726f0e/$t",
        "lat": 42.76526,
        "lon": 25.24595
    },
    {
        "name": "2024BG2W16",
        "map": "d1d/b0a7154433e5a0b48b0dfb4e/$t",
        "lat": 42.76526,
        "lon": 25.24595
    },
    {
        "name": "2024BG2M16",
        "map": "d1d/8cdbc7e4b7715eb54259669c/$t",
        "lat": 42.76526,
        "lon": 25.24595
    },
    {
        "name": "2024BG1M21E",
        "map": "d1d/d6e70b93850d26070ef4a59b/$t",
        "lat": 42.75503,
        "lon": 25.2265
    },
    {
        "name": "2024BG1W21E",
        "map": "d1d/f73ff7231482c0da7117ee7c/$t",
        "lat": 42.75503,
        "lon": 25.2265
    },
    {
        "name": "2024BG1M20",
        "map": "d1d/893bd062a93e6a76595857bd/$t",
        "lat": 42.75503,
        "lon": 25.2265
    },
    {
        "name": "2024BG1W20",
        "map": "d1d/ef96c074ccd9b3263e11baa6/$t",
        "lat": 42.75503,
        "lon": 25.2265
    },
    {
        "name": "2024BG1M18",
        "map": "d1d/cc4cca108f18f352b03ab929/$t",
        "lat": 42.75503,
        "lon": 25.2265
    },
    {
        "name": "2024BG1W18",
        "map": "d1d/c375dbf28b29902552b9a218/$t",
        "lat": 42.75503,
        "lon": 25.2265
    },
    {
        "name": "2024BG1M16",
        "map": "d1d/c763b30efd38828ab87c9cdd/$t",
        "lat": 42.75503,
        "lon": 25.2265
    },
    {
        "name": "2024BG1W16",
        "map": "d1d/68465fb34eaaa037dcc59939/$t",
        "lat": 42.75503,
        "lon": 25.2265
    },
    {
        "name": "SufcBA",
        "map": "d1d/5ba00ffe8d9da071c12bc5ce/$t",
        "lat": 42.78699,
        "lon": 25.24479
    },
    {
        "name": "WOC2024KOFM",
        "map": "d1d/a5fc8546ea9f5c46204da65e/$t",
        "lat": 55.9515,
        "lon": -3.1791
    },
    {
        "name": "WOC2024KOFW",
        "map": "d1d/a5fc8546ea9f5c46204da65e/$t",
        "lat": 55.95149,
        "lon": -3.17919
    },
    {
        "name": "WOC2024KOSFM",
        "map": "d1d/8dbd31995203673a963d9d16/Knock-out_Sprint_Semi-final-Gif.gif",
        "lat": 55.95049,
        "lon": -3.18264
    },
    {
        "name": "WOC2024KOSFW",
        "map": "d1d/8dbd31995203673a963d9d16/Knock-out_Sprint_Semi-final-Gif.gif",
        "lat": 55.95051,
        "lon": -3.18268
    },
    {
        "name": "WOC2024KOQFM",
        "map": "d1d/d33b6ddaebee2bebb31bde4d/$t",
        "lat": 55.94813,
        "lon": -3.17843
    },
    {
        "name": "WOC2024KOQFW",
        "map": "d1d/d33b6ddaebee2bebb31bde4d/$t",
        "lat": 55.94829,
        "lon": -3.17833
    },
    {
        "name": "WOC2024KOQM3",
        "map": "d1d/1b4958ec1c5337dd86d74f90/Knock-out_Sprint_Qualification_Men-3.gif",
        "lat": 55.91878,
        "lon": -3.27823
    },
    {
        "name": "WOC2024KOQM1",
        "map": "d1d/ca2d1429d730fa2d9d7b977c/Knock-out_Sprint_Qualification_Men-1.gif",
        "lat": 55.91876,
        "lon": -3.27823
    },
    {
        "name": "WOC2024KOQM2",
        "map": "d1d/5723f765a72723af1ac91273/Knock-out_Sprint_Qualification_Men-2.gif",
        "lat": 55.91876,
        "lon": -3.27821
    },
    {
        "name": "WOC2024KOQW2",
        "map": "d1d/47c29ef3a80a3c87c1383f5f/Knock-out_Sprint_Qualification_Women-2.gif",
        "lat": 55.91877,
        "lon": -3.27825
    },
    {
        "name": "WOC2024KOQW3",
        "map": "d1d/067e3c4d764ae42f8def32dc/Knock-out_Sprint_Qualification_Women-3.gif",
        "lat": 55.9188,
        "lon": -3.27819
    },
    {
        "name": "WOC2024KOQW1",
        "map": "d1d/0128e6b2f63c4104fbf2313d/Knock-out_Sprint_Qualification_Women-1.gif",
        "lat": 55.91875,
        "lon": -3.27828
    },
    {
        "name": "WOC2024SR4",
        "map": "d1d/2180b67eb04807e58c84f275/$t",
        "lat": 55.91024,
        "lon": -3.31785
    },
    {
        "name": "WOC2024SR3",
        "map": "d1d/3dd9f134e3d698a1fa42e3f3/$t",
        "lat": 55.91025,
        "lon": -3.31762
    },
    {
        "name": "WOC2024SR2",
        "map": "d1d/3dd9f134e3d698a1fa42e3f3/$t",
        "lat": 55.91018,
        "lon": -3.31754
    },
    {
        "name": "WOC2024SR1",
        "map": "d1d/2180b67eb04807e58c84f275/$t",
        "lat": 55.91018,
        "lon": -3.31751
    },
    {
        "name": "WOC2024SFW",
        "map": "d1d/959f346c2f767cb615ab53db/$t",
        "lat": 55.94868,
        "lon": -3.1935
    },
    {
        "name": "WOC2024SFM",
        "map": "d1d/43173e41d2ba48f7f1044deb/$t",
        "lat": 55.94868,
        "lon": -3.19325
    },
    {
        "name": "WOC2024SQW2",
        "map": "d1d/cfeda9f5478c7d2d18524803/Sprint_Qualification_Women-2.gif",
        "lat": 55.97433,
        "lon": -3.1732
    },
    {
        "name": "WOC2024SQW1",
        "map": "d1d/c896169b26808e53c676c73c/Sprint_Qualification_Women-1.gif",
        "lat": 55.97433,
        "lon": -3.17319
    },
    {
        "name": "WOC2024SQW3",
        "map": "d1d/0bf45aab2ebae22e5e0a2d73/Sprint_Qualification_Women-3.gif",
        "lat": 55.97433,
        "lon": -3.17319
    },
    {
        "name": "WOC2024SQM2",
        "map": "d1d/776b3ff69e0567a091880d82/Sprint_Qualification_Men-2.gif",
        "lat": 55.97433,
        "lon": -3.17319
    },
    {
        "name": "WOC2024SQM3",
        "map": "d1d/9f0346fb3aec00fe737cfb88/Sprint_Qualification_Men-3Gif.gif",
        "lat": 55.97433,
        "lon": -3.1732
    },
    {
        "name": "WOC2024SQM1",
        "map": "d1d/8a36dc99404bcbeb29d76846/Sprint_Qualification_Men-1.gif",
        "lat": 55.97433,
        "lon": -3.17321
    },
    {
        "name": "2024-06-23OfestlangH21",
        "map": "d1d/8251f899bd1cdcb933eee09c/$t",
        "lat": 61.11334,
        "lon": 10.75737
    },
    {
        "name": "2024-06-23OfestlangD21",
        "map": "d1d/8a3383cd1392acb29ca5d473/$t",
        "lat": 61.11355,
        "lon": 10.75703
    },
    {
        "name": "2024-06-23OfestlangH1920",
        "map": "d1d/6d46beb5583495181f7a77f5/$t",
        "lat": 61.11351,
        "lon": 10.75677
    },
    {
        "name": "2024-06-23OfestlangD1920",
        "map": "d1d/05f12aaf963208bceea5cfaf/$t",
        "lat": 61.11334,
        "lon": 10.75729
    },
    {
        "name": "2024-06-23OfestlangH1718",
        "map": "d1d/0509f879cea1b41b6efc7697/$t",
        "lat": 61.11413,
        "lon": 10.75471
    },
    {
        "name": "2024-06-23OfestlangD1718",
        "map": "d1d/2b885eb5019ceabd34ce05d6/$t",
        "lat": 61.11434,
        "lon": 10.75471
    },
    {
        "name": "2024-06-22OfestmellomH1920",
        "map": "d1d/589f30d014c9e2502a3a6e15/$t",
        "lat": 61.11026,
        "lon": 10.73899
    },
    {
        "name": "2024-06-22OfestmellomD21",
        "map": "d1d/5d073cd547b7b968ee45d3b5/$t",
        "lat": 61.11022,
        "lon": 10.73881
    },
    {
        "name": "2024-06-22OfestmellomD1920",
        "map": "d1d/4f7574269f80f7f9ac5b2780/$t",
        "lat": 61.11024,
        "lon": 10.73903
    },
    {
        "name": "2024-06-22OfestmellomH21",
        "map": "d1d/8f9a7e753880ec76f0975fb9/$t",
        "lat": 61.11022,
        "lon": 10.7389
    },
    {
        "name": "2024-06-21OfestsprintD1718",
        "map": "d1d/6c41e5f0e5befc30e8a3cfe8/$t",
        "lat": 61.11682,
        "lon": 10.46295
    },
    {
        "name": "2024-06-21OfestsprintH1718",
        "map": "d1d/6b7099e6d1076599afb272ad/$t",
        "lat": 61.11673,
        "lon": 10.46312
    },
    {
        "name": "2024-06-21OfestsprintH21",
        "map": "d1d/185f71e8651d9d16df669d72/$t",
        "lat": 61.11691,
        "lon": 10.46353
    },
    {
        "name": "2024-06-21OfestsprintD21",
        "map": "d1d/730179b45fe7b75f1ce7eae2/$t",
        "lat": 61.11684,
        "lon": 10.46366
    },
    {
        "name": "XhURcQ",
        "map": "d1d/f5fb015bc8cfcee58f2dfc5e/Bana_1.png",
        "lat": 59.16646,
        "lon": 18.14696
    },
    {
        "name": "xKvatA",
        "map": "d1d/c14951ffab1e25d3a869da02/Bana_2.png",
        "lat": 59.16648,
        "lon": 18.14698
    },
    {
        "name": "2024-06-02JWOCtestlangH1720",
        "map": "d1d/4c8cc932a937912c9a2ab1c8/$t",
        "lat": 63.36359,
        "lon": 10.74124
    },
    {
        "name": "2024-06-02JWOCtestlangD1720",
        "map": "d1d/0536b7ff4c11aae901e78bf4/$t",
        "lat": 63.36355,
        "lon": 10.74115
    },
    {
        "name": "2024-06-01JWOCtestmellomH1720",
        "map": "d1d/1e8671af52de0f6084516580/$t",
        "lat": 63.36355,
        "lon": 10.74175
    },
    {
        "name": "2024-06-01JWOCtestmellomD1720",
        "map": "d1d/16f597cd0e1f69ebf3682216/$t",
        "lat": 63.36361,
        "lon": 10.74139
    },
    {
        "name": "sella_long",
        "map": "d1d/f8e033153ff05c38cb61315a/$t",
        "lat": 46.00175,
        "lon": 11.39546
    },
    {
        "name": "2024BG-tr7",
        "map": "d1d/ae898c162d89372da960cc01/$t",
        "lat": 47.39353,
        "lon": 18.33879
    },
    {
        "name": "sella_middle",
        "map": "d1d/08673e24da1d6a5aa639b1d7/$t",
        "lat": 46.00372,
        "lon": 11.36692
    },
    {
        "name": "2024BG-tr6",
        "map": "d1d/20b574568b61a6523d96fd91/$t",
        "lat": 47.38353,
        "lon": 18.43208
    },
    {
        "name": "2024BG-tr5",
        "map": "d1d/e7edbfab7b8ed26d6063253f/$t",
        "lat": 47.40326,
        "lon": 18.35262
    },
    {
        "name": "2024BG-tr4",
        "map": "d1d/d00db8608f750cb4187d7fbf/$t",
        "lat": 47.44475,
        "lon": 18.4022
    },
    {
        "name": "2024BG-tr3",
        "map": "d1d/c30017657a2536f1bf883ced/$t",
        "lat": 47.44082,
        "lon": 18.43524
    },
    {
        "name": "2024BG-tr2",
        "map": "d1d/66a9a6b08535315238a73fde/$t",
        "lat": 47.40361,
        "lon": 18.29589
    },
    {
        "name": "2024BG-tr1",
        "map": "d1d/04d052717a323acdcb4df6a2/$t",
        "lat": 47.48205,
        "lon": 18.47035
    },
    {
        "name": "valeriano_M",
        "map": "d1d/7cc54c976d4453190a2fbb10/$t",
        "lat": 46.17302,
        "lon": 12.91368
    },
    {
        "name": "valeriano_W",
        "map": "d1d/715f722bf32d6fc6621f7059/$t",
        "lat": 46.17299,
        "lon": 12.91372
    },
    {
        "name": "TCccuw",
        "map": "d1d/52a6242388556ae89490c1f9/Presyka.gif",
        "lat": 43.1501,
        "lon": 24.77637
    },
    {
        "name": "maniago_M",
        "map": "d1d/9b976af8851f8c069001d9e2/$t",
        "lat": 46.16819,
        "lon": 12.70555
    },
    {
        "name": "maniago_W",
        "map": "d1d/ff2103ec40a5c3a044b5b6bf/$t",
        "lat": 46.16821,
        "lon": 12.70559
    },
    {
        "name": "mE06SQ",
        "map": "d1d/7612818d37eb8f7e4ede6419/Aikana.All.gif",
        "lat": 43.04623,
        "lon": 24.81019
    },
    {
        "name": "qSisLA",
        "map": "d1d/aa06b684d4e981fed9b98100/$t",
        "lat": 46.27725,
        "lon": 13.14011
    },
    {
        "name": "xJ9lmQ",
        "map": "d1d/22074013746a4e91311c4d40/$t",
        "lat": 59.16731,
        "lon": 11.44149
    },
    {
        "name": "5dzusQ",
        "map": "d1d/3030775ce2399752f1e1702b/$t",
        "lat": 46.16003,
        "lon": 13.0125
    },
    {
        "name": "_CnQnw",
        "map": "d1d/08e932ee899215ab96d08fbf/$t",
        "lat": 46.30011,
        "lon": 13.124
    },
    {
        "name": "HOM24langH21",
        "map": "d1d/27e6d1b2aa0c224d103d8829/$t",
        "lat": 59.11721,
        "lon": 11.49625
    },
    {
        "name": "HOM24langH18",
        "map": "d1d/d6e640a0aafc0c38a5d2665e/$t",
        "lat": 59.11743,
        "lon": 11.49626
    },
    {
        "name": "HOM24langD20",
        "map": "d1d/48c6e5d76c988299b84ba0ad/$t",
        "lat": 59.11771,
        "lon": 11.49646
    },
    {
        "name": "HOM24langD18",
        "map": "d1d/bbace375b23f12b2fe2ba738/$t",
        "lat": 59.11752,
        "lon": 11.496
    },
    {
        "name": "HOM24langD21",
        "map": "d1d/65acc1e2175a2439d0279c0b/$t",
        "lat": 59.11721,
        "lon": 11.49642
    },
    {
        "name": "HOM24langH20",
        "map": "d1d/0a89c5704ab648953ce5b2ef/$t",
        "lat": 59.11747,
        "lon": 11.49625
    },
    {
        "name": "HOM24mellomH",
        "map": "d1d/629a06ae9606e6a58b160697/$t",
        "lat": 59.12841,
        "lon": 11.49348
    },
    {
        "name": "HOM24mellomD",
        "map": "d1d/38f4ff2cec1c5916b9570252/$t",
        "lat": 59.1283,
        "lon": 11.49348
    },
    {
        "name": "HOM24stafettDH",
        "map": "d1d/e85ad771eaee29a5a74dc273/$t",
        "lat": 59.12086,
        "lon": 11.48312
    },
    {
        "name": "HOM24sprintD",
        "map": "d1d/f6669de4cd2131e4d1f67700/$t",
        "lat": 59.12006,
        "lon": 11.38959
    },
    {
        "name": "HOM24sprintH",
        "map": "d1d/0c4c08ebe477316ebc905c17/$t",
        "lat": 59.12006,
        "lon": 11.38959
    },
    {
        "name": "MsnLRQ",
        "map": "d1d/7f7fd4eab164d3e1f8b225a7/$t",
        "lat": 59.80895,
        "lon": 10.75534
    },
    {
        "name": "2ggTicino-ME2",
        "map": "d1d/c9fd7bdbdcefe46647021dfe/$t",
        "lat": 45.69492,
        "lon": 8.5746
    },
    {
        "name": "2ggTicino-WE2",
        "map": "d1d/79c395763f14c8d7896b237c/$t",
        "lat": 45.69885,
        "lon": 8.56601
    },
    {
        "name": "2ggTicino-WE1",
        "map": "d1d/64f41e753e0912bbdf65d817/$t",
        "lat": 45.74737,
        "lon": 8.62195
    },
    {
        "name": "2ggTicino-ME1",
        "map": "d1d/33b54b614209173f6d9a053e/$t",
        "lat": 45.74582,
        "lon": 8.62096
    },
    {
        "name": "qysnUw",
        "map": "d1d/da413713dc4e249c6e228f42/$t",
        "lat": 59.89949,
        "lon": 10.67116
    },
    {
        "name": "CFRS2024-4",
        "map": "d1d/27527ed24646e81b5933ee12/$t",
        "lat": 43.45513,
        "lon": 5.86384
    },
    {
        "name": "CFRS2024-3",
        "map": "d1d/d81935fc82d3f392bc260e5f/$t",
        "lat": 43.45513,
        "lon": 5.86384
    },
    {
        "name": "CFRS2024-2",
        "map": "d1d/d81935fc82d3f392bc260e5f/$t",
        "lat": 43.45513,
        "lon": 5.86384
    },
    {
        "name": "CFRS2024-1",
        "map": "d1d/27527ed24646e81b5933ee12/$t",
        "lat": 43.45513,
        "lon": 5.86384
    },
    {
        "name": "RKwUWg",
        "map": "d1d/e1d347d8b915d6341799566b/$t",
        "lat": 48.37362,
        "lon": 2.5103
    },
    {
        "name": "DZ56cA",
        "map": "d1d/28d53aae5fa1009b117ba4e9/$t",
        "lat": 48.37617,
        "lon": 2.74012
    },
    {
        "name": "Z029qg",
        "map": "d1d/9a9fa6bb883c8fa81a84f253/$t",
        "lat": 48.44033,
        "lon": 2.68982
    },
    {
        "name": "85n2IA",
        "map": "d1d/0a1d75d7a3f5e6e3c096d297/$t",
        "lat": 48.36952,
        "lon": 2.72001
    },
    {
        "name": "20240324",
        "map": "d1d/b86eb4c2330f89ae90ba460a/$t",
        "lat": 43.11107,
        "lon": 25.60999
    },
    {
        "name": "Qo6NCg",
        "map": "d1d/af84f265a84b1ceff8cc8dee/$t",
        "lat": 61.48893,
        "lon": 23.84792
    },
    {
        "name": "GI8ugw",
        "map": "d1d/f49c0cbcb2b9748fff3b35e3/$t",
        "lat": 61.48893,
        "lon": 23.84792
    },
    {
        "name": "20240323",
        "map": "d1d/257e0fe267e47efde13fe2b5/$t",
        "lat": 43.07862,
        "lon": 25.60677
    },
    {
        "name": "pG7tYA",
        "map": "d1d/2b82393a6b11c4e81a10c2e1/$t",
        "lat": 61.48893,
        "lon": 23.84792
    },
    {
        "name": "20240322",
        "map": "d1d/810fabe36ec89bee4be9e166/$t",
        "lat": 43.06928,
        "lon": 25.61619
    },
    {
        "name": "20240321",
        "map": "d1d/cae6ce39c1cc68bd8a3eb997/$t",
        "lat": 42.87267,
        "lon": 25.30944
    },
    {
        "name": "24-Lumo14",
        "map": "d1d/921716e5ac634da62d2bc742/$t",
        "lat": 59.13345,
        "lon": 11.63361
    },
    {
        "name": "Section18mars",
        "map": "d1d/b460d485d41853b02b4f1aa3/$t",
        "lat": 50.7532,
        "lon": 2.32191
    },
    {
        "name": "FzHt9A",
        "map": "d1d/f7e1e98c368db1e7b48a6172/$t",
        "lat": 43.12833,
        "lon": 25.62392
    },
    {
        "name": "24-Lumo13",
        "map": "d1d/b4dffcadbb00da3f5bcdf1de/$t",
        "lat": 59.0677,
        "lon": 11.53946
    },
    {
        "name": "20240703",
        "map": "d1d/cae6ce39c1cc68bd8a3eb997/$t",
        "lat": 42.87267,
        "lon": 25.30944
    },
    {
        "name": "24-Lumo12",
        "map": "d1d/e353ebf090ad8667e6f81cba/$t",
        "lat": 59.2008,
        "lon": 11.28968
    },
    {
        "name": "2024-03-03NCjakstartD1720",
        "map": "d1d/818c69da858b25b0de86b953/$t",
        "lat": 63.33771,
        "lon": 11.09405
    },
    {
        "name": "2024-03-03NCjakstartH1720",
        "map": "d1d/ab6d9a24baa98364dc8e5dfa/$t",
        "lat": 63.33794,
        "lon": 11.09302
    },
    {
        "name": "2024-03-03NCjakstartD21",
        "map": "d1d/ab6d9a24baa98364dc8e5dfa/$t",
        "lat": 63.33809,
        "lon": 11.09336
    },
    {
        "name": "2024-03-03NCjakstartH21",
        "map": "d1d/5d6bffb5c8d0dc99e5250065/$t",
        "lat": 63.33732,
        "lon": 11.09319
    },
    {
        "name": "n0rq7Q",
        "map": "d1d/8ad1a08a91e4443d058f5ebe/Course3Mart2024_all_All.gif",
        "lat": 43.32227,
        "lon": 24.55249
    },
    {
        "name": "2024-03-02NMsprintH21",
        "map": "d1d/022316c369c52e8354a671b6/$t",
        "lat": 63.33849,
        "lon": 11.08997
    },
    {
        "name": "2024-03-02NMsprintD21",
        "map": "d1d/4dfe33fd6b468ace9d5b1534/$t",
        "lat": 63.33824,
        "lon": 11.09216
    },
    {
        "name": "2024-03-02NMsprintH1720",
        "map": "d1d/022316c369c52e8354a671b6/$t",
        "lat": 63.33832,
        "lon": 11.09216
    },
    {
        "name": "2024-03-02NMsprintD1720",
        "map": "d1d/4dfe33fd6b468ace9d5b1534/$t",
        "lat": 63.3384,
        "lon": 11.0925
    },
    {
        "name": "24-Lumo11",
        "map": "d1d/1376d3c019b48f0e42b80695/$t",
        "lat": 59.17578,
        "lon": 11.31618
    },
    {
        "name": "MOM24-ChasingMSE",
        "map": "d1d/2810796fa16fbd44468c4d24/$t",
        "lat": 40.53191,
        "lon": -4.4223
    },
    {
        "name": "MOM24-ChasingWE",
        "map": "d1d/37d0c927af127b5f50ffd9eb/$t",
        "lat": 40.53191,
        "lon": -4.4223
    },
    {
        "name": "MOM24-MiddleMSE",
        "map": "d1d/8ff3e93d956b96140c7f3eef/$t",
        "lat": 40.41914,
        "lon": -4.68126
    },
    {
        "name": "MOM24-MiddleWE",
        "map": "d1d/9af9750ae37bae5829a8ff89/$t",
        "lat": 40.41914,
        "lon": -4.68126
    },
    {
        "name": "2024-02-18-NCsprintD21",
        "map": "d1d/f67fd61f022de52ce2fd8b19/$t",
        "lat": 69.77517,
        "lon": 19.33186
    },
    {
        "name": "2024-02-18-NCsprintH21",
        "map": "d1d/3b582a1afeda3543a171387f/$t",
        "lat": 69.77529,
        "lon": 19.33203
    },
    {
        "name": "2024-02-18-NCsprintD1720",
        "map": "d1d/f67fd61f022de52ce2fd8b19/$t",
        "lat": 69.77535,
        "lon": 19.33186
    },
    {
        "name": "2024-02-18-NCsprintH1720",
        "map": "d1d/3b582a1afeda3543a171387f/$t",
        "lat": 69.77535,
        "lon": 19.33212
    },
    {
        "name": "MOM24-LongWE",
        "map": "d1d/36417f049d5ddd10427ee458/$t",
        "lat": 40.52693,
        "lon": -4.35032
    },
    {
        "name": "MOM24-LongMSE",
        "map": "d1d/e67d109a54a599b1841d232c/$t",
        "lat": 40.52693,
        "lon": -4.35032
    },
    {
        "name": "2024-02-17-NMmellomH17",
        "map": "d1d/356fa4317c65321a4cc1679c/$t",
        "lat": 69.77517,
        "lon": 19.3322
    },
    {
        "name": "2024-02-17-NMmellomD17",
        "map": "d1d/9c2352eff310fb37d7287b9f/$t",
        "lat": 69.77529,
        "lon": 19.33203
    },
    {
        "name": "24-Lumo10",
        "map": "d1d/251aac5f7e13878f4a008cee/$t",
        "lat": 59.16225,
        "lon": 11.25094
    },
    {
        "name": "EdV-Bw",
        "map": "d1d/023b71aad46edbfd8a6eb212/$t",
        "lat": 40.56374,
        "lon": -7.02404
    },
    {
        "name": "siLuvQ",
        "map": "d1d/f46dab893ed65d7f08c35752/$t",
        "lat": 40.56061,
        "lon": -7.02404
    },
    {
        "name": "XUVDyw",
        "map": "d1d/aff315aaec6dc06628a7d005/$t",
        "lat": 40.57209,
        "lon": -7.01923
    },
    {
        "name": "BI-Jiw",
        "map": "d1d/eb4d363a3aa8edbb6198dfe2/$t",
        "lat": 40.57,
        "lon": -7.02061
    },
    {
        "name": "Bnh3hw",
        "map": "d1d/9085c1ce1c70aec70ea50f9d/$t",
        "lat": 40.57939,
        "lon": -7.02473
    },
    {
        "name": "RS4FZQ",
        "map": "d1d/7a42bf2ee7ffa5d6ad1be0e3/$t",
        "lat": 40.57939,
        "lon": -7.0261
    },
    {
        "name": "r4axfg",
        "map": "d1d/4c68afcb39569832ab4ebcee/$t",
        "lat": 40.58408,
        "lon": -7.02679
    },
    {
        "name": "tFHPVA",
        "map": "d1d/6da9e340f3b3d66be970a3f1/$t",
        "lat": 40.58524,
        "lon": -7.02859
    },
    {
        "name": "ceGyGA",
        "map": "d1d/7dc0c2271e7e55731e72445f/$t",
        "lat": 42.10258,
        "lon": 23.78442
    },
    {
        "name": "HRO6XQ",
        "map": "d1d/20cdb0400a96e5a66c1c5893/$t",
        "lat": 42.10258,
        "lon": 23.78442
    },
    {
        "name": "CtJ15A",
        "map": "d1d/1e17dad11aa8680ade20679a/$t",
        "lat": 42.10125,
        "lon": 23.78596
    },
    {
        "name": "7w8Idg",
        "map": "d1d/e2298a8614bbe752dfa42dc7/$t",
        "lat": 42.10125,
        "lon": 23.78596
    },
    {
        "name": "bVIvEQ",
        "map": "d1d/8912ddb49c6b48cc6d40a825/$t",
        "lat": 42.09186,
        "lon": 23.79638
    },
    {
        "name": "ALRpNw",
        "map": "d1d/54bf9feb04eaf2c25290382a/$t",
        "lat": 42.09186,
        "lon": 23.79638
    },
    {
        "name": "24-Lumo09",
        "map": "d1d/49a93ff39df62e0d9728cdba/$t",
        "lat": 59.11181,
        "lon": 11.29285
    },
    {
        "name": "2024-02-04NMskio-stafett-D17-3etp",
        "map": "d1d/e07e2444394917d486dacd71/$t",
        "lat": 60.46218,
        "lon": 10.63642
    },
    {
        "name": "2024-02-04NMskio-stafett-H17-3etp",
        "map": "d1d/4cf953093bdb361346c3aa6d/$t",
        "lat": 60.46214,
        "lon": 10.63629
    },
    {
        "name": "2024-02-03NMskio-lang-H21",
        "map": "d1d/3001c453b9ab9daa7c7843ec/$t",
        "lat": 60.46229,
        "lon": 10.63659
    },
    {
        "name": "2024-02-03NMskio-lang-D21",
        "map": "d1d/95766d3f07b50972cdcb1de2/$t",
        "lat": 60.46225,
        "lon": 10.6365
    },
    {
        "name": "2024-02-03NMskio-lang-H1720",
        "map": "d1d/a3b3d7f32cc858cf688e3a27/$t",
        "lat": 60.46216,
        "lon": 10.63655
    },
    {
        "name": "2024-02-03NMskio-lang-D1720",
        "map": "d1d/82294c103bf9eed2aef6092e/$t",
        "lat": 60.4621,
        "lon": 10.6362
    },
    {
        "name": "24-Lumo08",
        "map": "d1d/7678aefc12aa92317faada1e/$t",
        "lat": 59.12303,
        "lon": 11.23013
    },
    {
        "name": "bKh2eQ",
        "map": "d1d/64ca8db9b1b3e8c8ab21d7b0/$t",
        "lat": -39.05882,
        "lon": 174.08803
    },
    {
        "name": "d4xZ0Q",
        "map": "d1d/0ec0fd22d69bfadd24ed2900/$t",
        "lat": -39.05885,
        "lon": 174.08804
    },
    {
        "name": "TrainingBA2",
        "map": "d1d/7d818fd6f3153e890c6d650f/$t",
        "lat": 50.83214,
        "lon": 2.18325
    },
    {
        "name": "TrainingBA1",
        "map": "d1d/b9529c165e8423a68827635f/$t",
        "lat": 50.83169,
        "lon": 2.18032
    },
    {
        "name": "3eID2g",
        "map": "d1d/0282a10219e0be44dc2093b1/$t",
        "lat": 42.70959,
        "lon": 26.28781
    },
    {
        "name": "iVhIuA",
        "map": "d1d/19c984f585815a23676e4c2c/Canvas_1_Map.jpg",
        "lat": 41.86876,
        "lon": -8.51746
    },
    {
        "name": "23-Lumo07",
        "map": "d1d/a58ac52216b931fe40f467f7/$t",
        "lat": 59.17345,
        "lon": 11.2583
    },
    {
        "name": "rG6hIA",
        "map": "d1d/c55172e169549eb91e773784/1.png",
        "lat": 59.45171,
        "lon": 10.70978
    },
    {
        "name": "VflsEw",
        "map": "d1d/9002a060cb53c41216bac322/$t",
        "lat": 61.5009,
        "lon": 23.71613
    },
    {
        "name": "q0Op4A",
        "map": "d1d/c55172e169549eb91e773784/1.png",
        "lat": 59.45296,
        "lon": 10.71107
    },
    {
        "name": "23-Lumo06",
        "map": "d1d/30e17cbfe7e917290e5e40af/$t",
        "lat": 59.15482,
        "lon": 11.56325
    },
    {
        "name": "Q-bt7A",
        "map": "d1d/abf323d509493e81bfefd83a/$t",
        "lat": 37.28823,
        "lon": -7.05499
    },
    {
        "name": "fQLKTQ",
        "map": "d1d/6b6208d4862a6e5eca0f5d2e/$t",
        "lat": 37.19824,
        "lon": -6.98758
    },
    {
        "name": "io-lYg",
        "map": "d1d/82cdaa87c429bdfcc21dde75/$t",
        "lat": 37.258,
        "lon": -7.09548
    },
    {
        "name": "23Skolleborg",
        "map": "d1d/1979da628c18939f12cfead9/$t",
        "lat": 59.20237,
        "lon": 11.54998
    },
    {
        "name": "pfnPrw",
        "map": "d1d/bef7893b2f186675305ccef4/$t",
        "lat": 42.66331,
        "lon": 23.30826
    },
    {
        "name": "GKKoiA",
        "map": "d1d/06fb590948c7481df6ba40d2/$t",
        "lat": 42.6662,
        "lon": 23.30816
    },
    {
        "name": "BIdRpQ",
        "map": "d1d/0215a0562c47a8a3ece3f0b5/$t",
        "lat": 37.19629,
        "lon": -6.991
    },
    {
        "name": "n4czvA",
        "map": "d1d/a5beb49bec7efbc60472d4d1/$t",
        "lat": 57.75548,
        "lon": 12.1172
    },
    {
        "name": "9Rpm2Q",
        "map": "d1d/66b8f4078d683cea14496eee/$t",
        "lat": 37.26804,
        "lon": -7.10562
    },
    {
        "name": "aAlTtA",
        "map": "d1d/04dd4c80c03492f3de08667c/$t",
        "lat": 57.63823,
        "lon": 12.0618
    },
    {
        "name": "23-Lumo05",
        "map": "d1d/22dff4bbca451562cf297aab/$t",
        "lat": 59.05941,
        "lon": 11.54608
    },
    {
        "name": "sfvzoA",
        "map": "d1d/1980d5499c24bf433fa4239f/$t",
        "lat": 57.748,
        "lon": 12.04992
    },
    {
        "name": "Mc2Txw",
        "map": "d1d/6feebb80f42ecf15b176576c/$t",
        "lat": 37.26325,
        "lon": -7.11222
    },
    {
        "name": "HX6grQ",
        "map": "d1d/cca5a6429e525edd338b7bd5/$t",
        "lat": 57.73916,
        "lon": 11.88379
    },
    {
        "name": "F8rjSg",
        "map": "d1d/0e3d575d145028dd2f74afbb/Bana_1.png",
        "lat": 57.71727,
        "lon": 11.87252
    },
    {
        "name": "n4sT4w",
        "map": "d1d/f747f16b1656e87d8c7f6477/$t",
        "lat": 61.50276,
        "lon": 23.95473
    },
    {
        "name": "23-Lumo04",
        "map": "d1d/9d58b8e09afeec922ab20315/$t",
        "lat": 59.22467,
        "lon": 11.30788
    },
    {
        "name": "RCyjfA",
        "map": "d1d/40fd2df6bac610914b48fa7c/$t",
        "lat": 51.05434,
        "lon": 2.42094
    },
    {
        "name": "cuneosanpaolo",
        "map": "d1d/18920c07bec0449b81aaa26f/$t",
        "lat": 44.37029,
        "lon": 7.53349
    },
    {
        "name": "lagodipianfei",
        "map": "d1d/acbf945209b7af7dd5a20718/$t",
        "lat": 44.35466,
        "lon": 7.71613
    },
    {
        "name": "u6suXg",
        "map": "d1d/a26762cf9b4dfc8b5aa7a6e9/$t",
        "lat": 61.5083,
        "lon": 23.49012
    },
    {
        "name": "23-Lumo03",
        "map": "d1d/31ecc312af7e5abbe63dc731/$t",
        "lat": 59.25066,
        "lon": 11.33243
    },
    {
        "name": "cCGksg",
        "map": "d1d/cc41e543aabf61862f47bb4f/$t",
        "lat": 59.69133,
        "lon": 10.93861
    },
    {
        "name": "ZD2PJA",
        "map": "d1d/b186f10e84cc626f60d3aaea/$t",
        "lat": 49.72362,
        "lon": 20.44922
    },
    {
        "name": "nCdfMg",
        "map": "d1d/a237645086a9f16c1dc0584e/C.png",
        "lat": 61.23291,
        "lon": 23.91224
    },
    {
        "name": "RXAsWw",
        "map": "d1d/038c4a3ebe12ac137d456090/$t",
        "lat": 49.88861,
        "lon": 20.2501
    },
    {
        "name": "23-Lumo02",
        "map": "d1d/617402deaba68dd90cb39369/$t",
        "lat": 59.19639,
        "lon": 11.27567
    },
    {
        "name": "23kortenH17-20",
        "map": "d1d/eb51dfbfeda3c46be97499ff/$t",
        "lat": 59.39327,
        "lon": 13.45414
    },
    {
        "name": "23kortenD17-20",
        "map": "d1d/508b80bc08f8ff34ecbf80fa/$t",
        "lat": 59.3932,
        "lon": 13.45423
    },
    {
        "name": "23kortenH16",
        "map": "d1d/44deb1503353c94d580266df/$t",
        "lat": 59.39303,
        "lon": 13.4544
    },
    {
        "name": "23kortenD21",
        "map": "d1d/36c11772a6a39fd893adce6e/$t",
        "lat": 59.39316,
        "lon": 13.45423
    },
    {
        "name": "23kortenH21",
        "map": "d1d/1b279013213753552866a64e/$t",
        "lat": 59.3932,
        "lon": 13.45418
    },
    {
        "name": "23kortenD16",
        "map": "d1d/764c397aceea4006f08123e4/$t",
        "lat": 59.39318,
        "lon": 13.45423
    },
    {
        "name": "34NIhQ",
        "map": "d1d/a0f800dd12c2111ddaf06792/$t",
        "lat": 59.17421,
        "lon": 11.43063
    },
    {
        "name": "23langenD45",
        "map": "d1d/d9b38cad18fb62497800f80f/$t",
        "lat": 59.39322,
        "lon": 13.40212
    },
    {
        "name": "23langenH21",
        "map": "d1d/e831078d63d3880aebb8ed84/$t",
        "lat": 59.39322,
        "lon": 13.40212
    },
    {
        "name": "23langenH45",
        "map": "d1d/6b366fd15881e72fe413e21c/$t",
        "lat": 59.39322,
        "lon": 13.40212
    },
    {
        "name": "23langenD21",
        "map": "d1d/9c2176fe3df4313e5f211bb2/$t",
        "lat": 59.39322,
        "lon": 13.40212
    },
    {
        "name": "qweilw",
        "map": "d1d/edbf86cd8e03611ef2cb2c88/$t",
        "lat": 61.51296,
        "lon": 23.81574
    },
    {
        "name": "23-Lumo01",
        "map": "d1d/07fb72b440294cb97bb467ad/$t",
        "lat": 59.06124,
        "lon": 11.47616
    },
    {
        "name": "CNE23_Hommes_7",
        "map": "d1d/7488cec11f0e5a6379f86ce3/$t",
        "lat": 45.69376,
        "lon": -1.15492
    },
    {
        "name": "CNE23_Femmes_5",
        "map": "d1d/2480988e12568934a8d1900a/$t",
        "lat": 45.69374,
        "lon": -1.15493
    },
    {
        "name": "CNE23_Hommes_6",
        "map": "d1d/aec5a5feeedae6ff4c9a254a/$t",
        "lat": 45.69374,
        "lon": -1.1549
    },
    {
        "name": "CNE23_Femmes_4",
        "map": "d1d/09fdccf331bafb07f1db4a59/$t",
        "lat": 45.69374,
        "lon": -1.15492
    },
    {
        "name": "CNE23_Hommes_5",
        "map": "d1d/7488cec11f0e5a6379f86ce3/$t",
        "lat": 45.69376,
        "lon": -1.15492
    },
    {
        "name": "CNE23_Femmes_3",
        "map": "d1d/2480988e12568934a8d1900a/$t",
        "lat": 45.69374,
        "lon": -1.15493
    },
    {
        "name": "CNE23_Hommes_4",
        "map": "d1d/aec5a5feeedae6ff4c9a254a/$t",
        "lat": 45.69374,
        "lon": -1.1549
    },
    {
        "name": "CNE23_Femmes_2",
        "map": "d1d/09fdccf331bafb07f1db4a59/$t",
        "lat": 45.69374,
        "lon": -1.15492
    },
    {
        "name": "CNE23_Hommes_3",
        "map": "d1d/a269af6af36f29a8496caeaa/$t",
        "lat": 45.69374,
        "lon": -1.15492
    },
    {
        "name": "CNE23_Femmes_1",
        "map": "d1d/2480988e12568934a8d1900a/$t",
        "lat": 45.69374,
        "lon": -1.15493
    },
    {
        "name": "CNE23_Hommes_2",
        "map": "d1d/36a5c6b6197494e3e68180c0/$t",
        "lat": 45.69374,
        "lon": -1.15492
    },
    {
        "name": "CNE23_Hommes_1",
        "map": "d1d/36a5c6b6197494e3e68180c0/$t",
        "lat": 45.69374,
        "lon": -1.15492
    },
    {
        "name": "72omSg",
        "map": "d1d/dff2feac4179839a6ae2263d/$t",
        "lat": 45.73338,
        "lon": -1.22681
    },
    {
        "name": "3wXssQ",
        "map": "d1d/269c54c4eb7d6e03f6d73329/$t",
        "lat": 45.73338,
        "lon": -1.22681
    },
    {
        "name": "ITCh4Q",
        "map": "d1d/7f5c4cb393e3a91832934096/$t",
        "lat": 61.46118,
        "lon": 23.87464
    },
    {
        "name": "T-_EfQ",
        "map": "d1d/a2c0532987b6dbaa8c39b429/$t",
        "lat": 40.53305,
        "lon": -4.41951
    },
    {
        "name": "po8wzQ",
        "map": "d1d/8cff3e7d857b759f69823d3f/$t",
        "lat": 40.53305,
        "lon": -4.41951
    },
    {
        "name": "miYhPw",
        "map": "d1d/484133e5b647cdbb2166dcf8/$t",
        "lat": 40.50102,
        "lon": -4.42316
    },
    {
        "name": "5KnZsA",
        "map": "d1d/4af79ca189dc94724196eebd/$t",
        "lat": 40.50102,
        "lon": -4.42316
    },
    {
        "name": "2023-10-21BlodslitD1516",
        "map": "d1d/c16dc56c00a32d612244433c/$t",
        "lat": 59.26495,
        "lon": 10.95882
    },
    {
        "name": "2023-10-21BlodslitH1516",
        "map": "d1d/e736b07f710a843bc3a09cdf/$t",
        "lat": 59.26495,
        "lon": 10.95899
    },
    {
        "name": "2023-10-21BlodslitD21siste",
        "map": "d1d/b5d2e2386846ce69310490ba/$t",
        "lat": 59.26477,
        "lon": 10.95899
    },
    {
        "name": "2023-10-21BlodslitD21sloyfer",
        "map": "d1d/773ee1f01184dbe7095c85c7/$t",
        "lat": 59.26455,
        "lon": 10.95882
    },
    {
        "name": "2023-10-21BlodslitH21siste",
        "map": "d1d/9f40921248bd650bc3b91818/$t",
        "lat": 59.26468,
        "lon": 10.95882
    },
    {
        "name": "2023-10-21BlodslitD1720siste",
        "map": "d1d/42b9588d46b7a0e3c70999bf/$t",
        "lat": 59.26486,
        "lon": 10.95873
    },
    {
        "name": "2023-10-21BlodslitD1720sloyfer",
        "map": "d1d/773ee1f01184dbe7095c85c7/$t",
        "lat": 59.26477,
        "lon": 10.95899
    },
    {
        "name": "2023-10-21BlodslitH21sloyfer",
        "map": "d1d/773ee1f01184dbe7095c85c7/$t",
        "lat": 59.26464,
        "lon": 10.95891
    },
    {
        "name": "2023-10-21BlodslitH1720siste",
        "map": "d1d/93d9614433fbabf7aea10ced/$t",
        "lat": 59.26464,
        "lon": 10.95865
    },
    {
        "name": "2023-10-21BlodslitH1720sloyfer",
        "map": "d1d/773ee1f01184dbe7095c85c7/$t",
        "lat": 59.26486,
        "lon": 10.95899
    },
    {
        "name": "KmE1AQ",
        "map": "d1d/5c7961e5654d8cc8ee21ecfc/$t",
        "lat": 40.52956,
        "lon": -4.41977
    },
    {
        "name": "M_Ib9A",
        "map": "d1d/d75cddeba766ad24bad1b6b1/$t",
        "lat": 40.52957,
        "lon": -4.41977
    },
    {
        "name": "f3cOFA",
        "map": "d1d/4362a7ffd05495193878d1e8/$t",
        "lat": -39.97921,
        "lon": 176.59983
    },
    {
        "name": "pCADkw",
        "map": "d1d/2b80eb237a73a6f4e9693ca7/$t",
        "lat": -39.97922,
        "lon": 176.59984
    },
    {
        "name": "7fK3vg",
        "map": "d1d/2f6c43254b321bee30675b52/$t",
        "lat": -39.64321,
        "lon": 176.86343
    },
    {
        "name": "sK7w7A",
        "map": "d1d/47ac8e7d2b4bb0c93c9d1662/$t",
        "lat": -39.64319,
        "lon": 176.86346
    },
    {
        "name": "0OOd4Q",
        "map": "d1d/8c45d12d8e5955936651a80b/$t",
        "lat": 61.51573,
        "lon": 23.84468
    },
    {
        "name": "XR80-Q",
        "map": "d1d/97341491716160fa1fe0bc2c/$t",
        "lat": 42.85751,
        "lon": 25.83984
    },
    {
        "name": "StageSection5",
        "map": "d1d/117a44fe1efe93ffd3d601f6/$t",
        "lat": 50.70286,
        "lon": 1.58218
    },
    {
        "name": "sZLgtg",
        "map": "d1d/f3d704472acc630fe3bbeb37/$t",
        "lat": 59.97325,
        "lon": 10.74538
    },
    {
        "name": "StageSection4",
        "map": "d1d/d871c82bbc05f90b6f500956/$t",
        "lat": 50.65097,
        "lon": 1.59425
    },
    {
        "name": "StageSection3",
        "map": "d1d/5d82849d5ccf5066c91306a5/$t",
        "lat": 50.71477,
        "lon": 1.5988
    },
    {
        "name": "cow-fg",
        "map": "d1d/0117947bb2148806d823f509/tile_0_0.png",
        "lat": 59.08662,
        "lon": 11.37497
    },
    {
        "name": "StageSection2",
        "map": "d1d/5cdcebea0b60c0f00812a261/$t",
        "lat": 50.65187,
        "lon": 1.59604
    },
    {
        "name": "StageSection1",
        "map": "d1d/8827f5e21c83cf0dc6d69054/$t",
        "lat": 50.652,
        "lon": 1.59822
    },
    {
        "name": "23euroSm",
        "map": "d1d/d795f24e9eafd907c3a16145/$t",
        "lat": 56.12186,
        "lon": -3.94405
    },
    {
        "name": "NGKKZg",
        "map": "d1d/e14d0e39a23d6973de70ea3e/$t",
        "lat": 42.03755,
        "lon": 23.97984
    },
    {
        "name": "hrYVBA",
        "map": "d1d/b7c95c41b62e8ba4c7015cf0/$t",
        "lat": 42.03942,
        "lon": 23.95449
    },
    {
        "name": "23euroSw",
        "map": "d1d/9150ce55e9fdfeb53da54e37/$t",
        "lat": 56.12189,
        "lon": -3.94404
    },
    {
        "name": "CpE_hw",
        "map": "d1d/e14d0e39a23d6973de70ea3e/$t",
        "lat": 42.03036,
        "lon": 23.98842
    },
    {
        "name": "80BXTw",
        "map": "d1d/d37f799d1ce8f1665acd7e36/$t",
        "lat": 42.03258,
        "lon": 23.97715
    },
    {
        "name": "23euroKOSfw",
        "map": "d1d/09832af0a3688b4ff5e0b0ef/$t",
        "lat": 56.1473,
        "lon": -3.92063
    },
    {
        "name": "23euroKOSfm",
        "map": "d1d/2235e728df5b03ab81143417/$t",
        "lat": 56.14734,
        "lon": -3.9205
    },
    {
        "name": "23euroKOSsfw",
        "map": "d1d/43b405dfa2cf752f4b4580bd/$t",
        "lat": 56.14723,
        "lon": -3.92052
    },
    {
        "name": "23euroKOSsfm",
        "map": "d1d/43b405dfa2cf752f4b4580bd/$t",
        "lat": 56.14721,
        "lon": -3.92033
    },
    {
        "name": "23euroKOSqfw",
        "map": "d1d/460aa959b1a65c07a594a883/$t",
        "lat": 56.14768,
        "lon": -3.91361
    },
    {
        "name": "23euroKOSqfm",
        "map": "d1d/460aa959b1a65c07a594a883/$t",
        "lat": 56.14768,
        "lon": -3.91361
    },
    {
        "name": "2023hlfinal",
        "map": "d1d/e6e8a1b5afd574bdeae99b06/$t",
        "lat": 60.02233,
        "lon": 10.74454
    },
    {
        "name": "kmnatt23",
        "map": "d1d/f4be95c4c272a9687b5b84f9/$t",
        "lat": 59.45868,
        "lon": 10.72995
    },
    {
        "name": "23euroMSR4",
        "map": "d1d/cbc94a69e98726f5cbe5cf8a/$t",
        "lat": 56.20123,
        "lon": -3.95155
    },
    {
        "name": "23euroMSR3",
        "map": "d1d/b0bd60327151cc6f3f75d2e0/$t",
        "lat": 56.20121,
        "lon": -3.95155
    },
    {
        "name": "23euroMSR2",
        "map": "d1d/b0bd60327151cc6f3f75d2e0/$t",
        "lat": 56.20125,
        "lon": -3.95153
    },
    {
        "name": "23euroMSR1",
        "map": "d1d/cbc94a69e98726f5cbe5cf8a/$t",
        "lat": 56.20121,
        "lon": -3.95158
    },
    {
        "name": "2B5rnA",
        "map": "d1d/0117947bb2148806d823f509/tile_0_0.png",
        "lat": 42.40487,
        "lon": 26.01562
    },
    {
        "name": "Q4tlIg",
        "map": "d1d/0117947bb2148806d823f509/tile_0_0.png",
        "lat": 42.86433,
        "lon": 25.32354
    },
    {
        "name": "BuQi2A",
        "map": "d1d/0b23fda0d41f834da886e32d/$t",
        "lat": 49.94826,
        "lon": 20.39887
    },
    {
        "name": "zcanJg",
        "map": "d1d/e7494169aca087760f754a5d/$t",
        "lat": 59.97075,
        "lon": 10.71634
    },
    {
        "name": "r4BZ4g",
        "map": "d1d/c97d1b6d6605691918a3fc89/$t",
        "lat": 42.89233,
        "lon": 24.79541
    },
    {
        "name": "itkKeg",
        "map": "d1d/915df96c19b288483aaed084/$t",
        "lat": 42.89233,
        "lon": 24.79541
    },
    {
        "name": "l8d50g",
        "map": "d1d/a9edfc1edd12259e24122482/$t",
        "lat": 42.87671,
        "lon": 24.76327
    },
    {
        "name": "R1wbZg",
        "map": "d1d/573b5c29b56e5f4908026495/$t",
        "lat": 59.21118,
        "lon": 17.96885
    },
    {
        "name": "_i4n2Q",
        "map": "d1d/eb2f41e4583b51fd7382589a/$t",
        "lat": 59.2067,
        "lon": 17.96923
    },
    {
        "name": "9PGRbA",
        "map": "d1d/6fd182e6e64acd85316cb5d9/$t",
        "lat": 59.2067,
        "lon": 17.96923
    },
    {
        "name": "d9U9cA",
        "map": "d1d/65bd0f3a9c55a0480e0b433c/$t",
        "lat": 59.2067,
        "lon": 17.96923
    },
    {
        "name": "5D-rOQ",
        "map": "d1d/9231026750e3756692b9615b/$t",
        "lat": 42.94645,
        "lon": 25.35645
    },
    {
        "name": "5Xry9Q",
        "map": "d1d/0117947bb2148806d823f509/tile_0_0.png",
        "lat": 42.85751,
        "lon": 25.48828
    },
    {
        "name": "ExwXxQ",
        "map": "d1d/a85114ad54d46801d5493a70/$t",
        "lat": 59.17689,
        "lon": 11.43205
    },
    {
        "name": "RqZQfA",
        "map": "d1d/5a505963abfe785f44cb1eb1/$t",
        "lat": 59.17631,
        "lon": 11.43208
    },
    {
        "name": "Htr20230928",
        "map": "d1d/e6704f99d7397b6a89e36297/$t",
        "lat": 59.17275,
        "lon": 11.43484
    },
    {
        "name": "bG0x1w",
        "map": "d1d/18d2e11d082f5d803ab4d6eb/$t",
        "lat": 42.89883,
        "lon": 25.31158
    },
    {
        "name": "JesV5A",
        "map": "d1d/1bf66876f12711ba2ed916f5/$t",
        "lat": 43.21812,
        "lon": 27.95355
    },
    {
        "name": "IuqTsA",
        "map": "d1d/ba3428686f29af714bc64c86/$t",
        "lat": 43.00615,
        "lon": 28.00781
    },
    {
        "name": "23wmtbocMR3",
        "map": "d1d/ebca2cfbc6fe75bf5eb50146/$t",
        "lat": 45.91444,
        "lon": 11.18391
    },
    {
        "name": "eFZAPQ",
        "map": "d1d/8dcb31e1e7d0d7aeac09d90c/$t",
        "lat": 43.31207,
        "lon": 27.79483
    },
    {
        "name": "e8KN1g",
        "map": "d1d/bbae5d659c108511d8d4429e/$t",
        "lat": 43.31207,
        "lon": 27.79483
    },
    {
        "name": "23wmtbocMR2",
        "map": "d1d/ebca2cfbc6fe75bf5eb50146/$t",
        "lat": 45.91444,
        "lon": 11.18391
    },
    {
        "name": "23wmtbocMR1",
        "map": "d1d/ebca2cfbc6fe75bf5eb50146/$t",
        "lat": 45.91444,
        "lon": 11.18391
    },
    {
        "name": "JDdbYA",
        "map": "d1d/0839b0a0d0ad372c9635f2cb/$t",
        "lat": 43.16045,
        "lon": 27.53906
    },
    {
        "name": "ui015w",
        "map": "d1d/c53e81a5e7f0f99fc10693dd/$t",
        "lat": 43.30245,
        "lon": 27.80433
    },
    {
        "name": "23wmtbocLw",
        "map": "d1d/661d7010da3c4ca5b2de6e19/$t",
        "lat": 45.94451,
        "lon": 11.28078
    },
    {
        "name": "23wmtbocLm",
        "map": "d1d/063ad1cca4cfa90207deefbf/$t",
        "lat": 45.94451,
        "lon": 11.28078
    },
    {
        "name": "23wmtbocMw",
        "map": "d1d/765b4fe407755b7f54dc3e8e/$t",
        "lat": 45.94012,
        "lon": 11.25754
    },
    {
        "name": "23wmtbocMm",
        "map": "d1d/8b3be474a1c8e51818d8d729/$t",
        "lat": 45.94012,
        "lon": 11.25754
    },
    {
        "name": "mulYJw",
        "map": "d1d/a8dd53e79f3122f6d0be5c73/$t",
        "lat": 59.98595,
        "lon": 10.74103
    },
    {
        "name": "2023-09-17-NMjrstafett-H1720",
        "map": "d1d/260bd52ee9cf8e3c2396185f/$t",
        "lat": 69.57589,
        "lon": 19.19895
    },
    {
        "name": "2023-09-17-NMjrstafett-D1720",
        "map": "d1d/f9d80612258bd4793b22c595/$t",
        "lat": 69.57801,
        "lon": 19.21698
    },
    {
        "name": "bDjkBQ",
        "map": "d1d/06daa93698c01e140d640af1/$t",
        "lat": 45.89119,
        "lon": 11.0413
    },
    {
        "name": "di539g",
        "map": "d1d/6621d6f8abafae57f53ceeb2/$t",
        "lat": 44.1224,
        "lon": 10.12766
    },
    {
        "name": "2023-09-17-jaktstart-D21",
        "map": "d1d/9bf4510d34cd2d4d52430692/$t",
        "lat": 69.57837,
        "lon": 19.21663
    },
    {
        "name": "2023-09-17-jaktstart-H21",
        "map": "d1d/38c47006e41081eca6972a0c/$t",
        "lat": 69.57801,
        "lon": 19.21766
    },
    {
        "name": "9xnqoA",
        "map": "d1d/70d714cfac9584a0421cfeb9/$t",
        "lat": 46.06855,
        "lon": 11.12131
    },
    {
        "name": "DEoGnw",
        "map": "d1d/187b2884c9a51d1227308099/$t",
        "lat": 46.06855,
        "lon": 11.12131
    },
    {
        "name": "QiTx3g",
        "map": "d1d/aac93ecf9d9622c5437fac3c/$t",
        "lat": 44.081,
        "lon": 10.0975
    },
    {
        "name": "sVxybA",
        "map": "d1d/ae12312ab5ef66860cb2794f/$t",
        "lat": 46.06855,
        "lon": 11.12131
    },
    {
        "name": "2023-09-16-Oidol-D16",
        "map": "d1d/1fb7f9ef65c15e9957d8c49c/$t",
        "lat": 69.57793,
        "lon": 19.21595
    },
    {
        "name": "2023-09-16-Oidol-H16",
        "map": "d1d/2103fad7ac026d593e2695ea/$t",
        "lat": 69.57813,
        "lon": 19.21698
    },
    {
        "name": "R3EVcA",
        "map": "d1d/2623903f4aec296ebd46fe08/$t",
        "lat": 59.06781,
        "lon": 11.53955
    },
    {
        "name": "P1JBoA",
        "map": "d1d/b5a0f349b3099e139498a340/$t",
        "lat": 45.97612,
        "lon": 11.09105
    },
    {
        "name": "2023-09-15-NCsprint-H21",
        "map": "d1d/e5b4efc9b1653aa08e6fd594/$t",
        "lat": 69.63785,
        "lon": 18.93652
    },
    {
        "name": "2023-09-15-NCsprint-D21",
        "map": "d1d/e56f899e32761766a38e3c3d/$t",
        "lat": 69.63633,
        "lon": 18.93577
    },
    {
        "name": "A_kAuA",
        "map": "d1d/ff5ac7ea0f3d772f920177a5/tile_0_0.png",
        "lat": 43.04899,
        "lon": 25.01953
    },
    {
        "name": "OJpGVQ",
        "map": "d1d/f8271e488baf488b25ebf348/$t",
        "lat": 45.90056,
        "lon": 11.04195
    },
    {
        "name": "fovn7g",
        "map": "d1d/2a6ce481470935a8249c37f9/$t",
        "lat": 42.67136,
        "lon": 26.30738
    },
    {
        "name": "Cnl4SA",
        "map": "d1d/b81ed0a0590945730ad69090/$t",
        "lat": 45.88891,
        "lon": 11.03911
    },
    {
        "name": "lPolSg",
        "map": "d1d/eccaa61365da3bc91c2f31a7/$t",
        "lat": 45.88896,
        "lon": 11.03903
    },
    {
        "name": "Z49Qlw",
        "map": "d1d/6266dffcb749e414f7522c91/$t",
        "lat": 45.95874,
        "lon": 10.90646
    },
    {
        "name": "C63gsg",
        "map": "d1d/afc103a9bd7dbeb1f06f9913/$t",
        "lat": 42.87851,
        "lon": 25.35016
    },
    {
        "name": "dbk1NQ",
        "map": "d1d/2a6ce481470935a8249c37f9/$t",
        "lat": 42.67136,
        "lon": 26.30738
    },
    {
        "name": "Wr6PPw",
        "map": "d1d/a370e2b349136f72ef85d564/$t",
        "lat": 45.88851,
        "lon": 11.04775
    },
    {
        "name": "TmaxeQ",
        "map": "d1d/a61af38f78df99d1bcbc752c/$t",
        "lat": 45.88885,
        "lon": 11.04715
    },
    {
        "name": "cX8TiA",
        "map": "d1d/118c8f5a95465f195a009eb0/$t",
        "lat": 42.16951,
        "lon": 24.90234
    },
    {
        "name": "Nb0XEA",
        "map": "d1d/0e9e8ab7ffee28a042d7b2f5/$t",
        "lat": 45.88603,
        "lon": 11.042
    },
    {
        "name": "4KDjRw",
        "map": "d1d/2525f9d96ac6e56ff2f6c68f/$t",
        "lat": 45.90329,
        "lon": 11.04408
    },
    {
        "name": "CWuJ4A",
        "map": "d1d/446965f08606614358b548d5/$t",
        "lat": 41.79939,
        "lon": 23.93555
    },
    {
        "name": "yUNjJg",
        "map": "d1d/ccbc48b2237f7586bfca23c0/$t",
        "lat": 45.88532,
        "lon": 11.02326
    },
    {
        "name": "VMiwhw",
        "map": "d1d/e6704f99d7397b6a89e36297/$t",
        "lat": 59.17308,
        "lon": 11.43505
    },
    {
        "name": "5icVTA",
        "map": "d1d/f93fdab5772113b1d0bf730e/$t",
        "lat": 61.25854,
        "lon": 8.91341
    },
    {
        "name": "fbAF0g",
        "map": "d1d/aa828ab86cba6cd82738eb90/$t",
        "lat": 61.23104,
        "lon": 8.92248
    },
    {
        "name": "ZIPZ-g",
        "map": "d1d/3ba6ad4ef592b0eb4d8d1a1b/$t",
        "lat": 61.25238,
        "lon": 8.94339
    },
    {
        "name": "pghBug",
        "map": "d1d/07f2c262b9d464cd6f894c6f/$t",
        "lat": 49.72619,
        "lon": 20.18009
    },
    {
        "name": "2023-09-03-NMstafett-H17-3etp",
        "map": "d1d/670da33bef2f0a06cac8171c/$t",
        "lat": 58.4248,
        "lon": 8.07989
    },
    {
        "name": "2023-09-03-NMstafett-H17-2etp",
        "map": "d1d/6eeaffe22fb85b7af9f1fcf2/$t",
        "lat": 58.42484,
        "lon": 8.07998
    },
    {
        "name": "2023-09-03-NMstafett-H17-1etp",
        "map": "d1d/6eeaffe22fb85b7af9f1fcf2/$t",
        "lat": 58.42478,
        "lon": 8.07979
    },
    {
        "name": "2023-09-03-NMstafett-D17-3etp",
        "map": "d1d/4530ca90e2ba83bb57b83453/$t",
        "lat": 58.42176,
        "lon": 8.07674
    },
    {
        "name": "2023-09-03-NMstafett-D17-2etp",
        "map": "d1d/8712eea80b17c57526539e62/$t",
        "lat": 58.42167,
        "lon": 8.07687
    },
    {
        "name": "2023-09-03-NMstafett-D17-1etp",
        "map": "d1d/8712eea80b17c57526539e62/$t",
        "lat": 58.4219,
        "lon": 8.07657
    },
    {
        "name": "2023-09-02-NM-mellom-H21",
        "map": "d1d/ea1e369b2f4d8931542285dd/$t",
        "lat": 58.429,
        "lon": 8.07025
    },
    {
        "name": "2023-09-02-NM-mellom-H1718",
        "map": "d1d/749ea606d4e4a9db877ff3ec/$t",
        "lat": 58.42924,
        "lon": 8.06999
    },
    {
        "name": "2023-09-02-NM-mellom-D1718",
        "map": "d1d/7fe7f6f4180a9e4865355823/$t",
        "lat": 58.42912,
        "lon": 8.07002
    },
    {
        "name": "2023-09-02-NM-mellom-D1920",
        "map": "d1d/789e3c594374905d99755330/$t",
        "lat": 58.42922,
        "lon": 8.06999
    },
    {
        "name": "2023-09-02-NM-mellom-H1920",
        "map": "d1d/96eb787c2853d395b5c5b45e/$t",
        "lat": 58.42933,
        "lon": 8.06983
    },
    {
        "name": "2023-09-02-NM-mellom-D21",
        "map": "d1d/ae45bcf920b5a9bbfeb12df3/$t",
        "lat": 58.42918,
        "lon": 8.07025
    },
    {
        "name": "2023-08-31-NM-lang-H21",
        "map": "d1d/1e4948dfdda25f1b1320a0a4/$t",
        "lat": 58.43469,
        "lon": 8.04821
    },
    {
        "name": "2023-08-31-NM-lang-D21",
        "map": "d1d/15866e02e128b64c9c9d17b6/$t",
        "lat": 58.43469,
        "lon": 8.04873
    },
    {
        "name": "2023-08-31-NM-lang-H1920",
        "map": "d1d/a591aa11edd1ea24b98f2f22/$t",
        "lat": 58.43469,
        "lon": 8.04856
    },
    {
        "name": "2023-08-31-NM-lang-D1920",
        "map": "d1d/3166f323a0bcc84299b5adb5/$t",
        "lat": 58.43514,
        "lon": 8.04804
    },
    {
        "name": "2023-08-31-NM-lang-H1718",
        "map": "d1d/45464db7d046882a68610e94/$t",
        "lat": 58.43478,
        "lon": 8.04821
    },
    {
        "name": "2023-08-31-NM-lang-D1718",
        "map": "d1d/d7dc6e1ac87dd9a7cc821c55/$t",
        "lat": 58.43496,
        "lon": 8.0483
    },
    {
        "name": "EEBtog",
        "map": "d1d/7df61f2a3fa1cb440690cfcf/$t",
        "lat": 49.78273,
        "lon": 5.67757
    },
    {
        "name": "fGMKLg",
        "map": "d1d/36a285f70ec86b4b6a410695/$t",
        "lat": 49.62023,
        "lon": 5.57493
    },
    {
        "name": "I2zBAw",
        "map": "d1d/fb5f2bac74cbc74748c7aafe/$t",
        "lat": 49.58486,
        "lon": 5.55507
    },
    {
        "name": "CFLD23-H20",
        "map": "d1d/e012264c80379ee084949145/$t",
        "lat": 44.56288,
        "lon": 1.84512
    },
    {
        "name": "CFLD23-D20",
        "map": "d1d/7f9fb080b85e9994810c0352/$t",
        "lat": 44.56288,
        "lon": 1.84512
    },
    {
        "name": "VotmBA",
        "map": "d1d/365f4b34ef2fe5056e5f487d/A1.png",
        "lat": 59.36644,
        "lon": 11.0601
    },
    {
        "name": "CFLD23-D21",
        "map": "d1d/23a34905680ea6c237d90972/$t",
        "lat": 44.56288,
        "lon": 1.84512
    },
    {
        "name": "CFLD23-H21",
        "map": "d1d/a1965b4ae91fee08b5892965/$t",
        "lat": 44.56288,
        "lon": 1.84512
    },
    {
        "name": "PU1WKQ",
        "map": "d1d/b8e4ebfc560d1ec02017972a/$t",
        "lat": 49.58093,
        "lon": 5.54651
    },
    {
        "name": "5Ri8FQ",
        "map": "d1d/e574a543aba91b11661df461/$t",
        "lat": 59.97111,
        "lon": 10.72067
    },
    {
        "name": "pBhQSw",
        "map": "d1d/1708e35821f5019ad03782db/$t",
        "lat": 59.42585,
        "lon": 10.71171
    },
    {
        "name": "2023NHmen8",
        "map": "d1d/a6ad611b7ff03f225c94ed43/$t",
        "lat": 59.88605,
        "lon": 11.25721
    },
    {
        "name": "2023NHwomen6",
        "map": "d1d/091b823e08c88b903e09ecac/$t",
        "lat": 59.8848,
        "lon": 11.25893
    },
    {
        "name": "2023NHmen7",
        "map": "d1d/731ae6f35aca5395b2a74245/$t",
        "lat": 59.88269,
        "lon": 11.25884
    },
    {
        "name": "2023NHwomen5",
        "map": "d1d/923279c87913a78d0d6d834f/$t",
        "lat": 59.88403,
        "lon": 11.2597
    },
    {
        "name": "2023NHmen6",
        "map": "d1d/77e4f429901263eaffcf34dd/$t",
        "lat": 59.88536,
        "lon": 11.26133
    },
    {
        "name": "2023NHwomen4",
        "map": "d1d/7182fa04aa86994359703dfc/$t",
        "lat": 59.8848,
        "lon": 11.26107
    },
    {
        "name": "2023NHmen5",
        "map": "d1d/8d52779ca995af6e7f8559b1/$t",
        "lat": 59.88502,
        "lon": 11.2621
    },
    {
        "name": "2023NHmen1-4",
        "map": "d1d/e499cf85ade7f0131dd900c6/$t",
        "lat": 59.88621,
        "lon": 11.26017
    },
    {
        "name": "2023NHwomen1-3",
        "map": "d1d/7b86ec6f671b6a1e24a29991/$t",
        "lat": 59.88638,
        "lon": 11.25983
    },
    {
        "name": "5KhLwQ",
        "map": "d1d/4f5249b2cb1fd46a90d806bc/$t",
        "lat": 61.5562,
        "lon": 23.53616
    },
    {
        "name": "wcuM3g",
        "map": "d1d/f86a2227856cbb14d1f1a24e/$t",
        "lat": 61.5562,
        "lon": 23.53616
    },
    {
        "name": "ihrphg",
        "map": "d1d/c55172e169549eb91e773784/1.png",
        "lat": 59.45422,
        "lon": 10.73958
    },
    {
        "name": "WdqLfQ",
        "map": "d1d/b4aebc1d2f89f261f95e2bcc/Lozarski_vrah_koridor.gif",
        "lat": 42.6828,
        "lon": 26.35702
    },
    {
        "name": "gNCPiQ",
        "map": "d1d/e668d4116b6dcd97cc182328/$t",
        "lat": 45.96092,
        "lon": 3.69316
    },
    {
        "name": "y2V49A",
        "map": "d1d/7c3babcd1e45273192667687/Lozarski_vrah.gif",
        "lat": 42.68246,
        "lon": 26.35893
    },
    {
        "name": "OHMneg",
        "map": "d1d/22f962fc2f134957e6f012b3/Course-Setting_hamambair5000_.Course-1-1.gif",
        "lat": 42.67238,
        "lon": 26.3105
    },
    {
        "name": "cLfpwA",
        "map": "d1d/7c3babcd1e45273192667687/Lozarski_vrah.gif",
        "lat": 42.68484,
        "lon": 26.35732
    },
    {
        "name": "Hc5eOw",
        "map": "d1d/6a072776b1c7fb41f628d5ae/Novo_selo.jpg",
        "lat": 42.68893,
        "lon": 26.3293
    },
    {
        "name": "PUArFw",
        "map": "d1d/c01322f69cbd71134b5b88a9/$t",
        "lat": 61.45956,
        "lon": 23.83299
    },
    {
        "name": "K1xdTg",
        "map": "d1d/bf031595c4fe99a202db4a3b/$t",
        "lat": 59.18179,
        "lon": 17.99275
    },
    {
        "name": "SRcpOg",
        "map": "d1d/9e25045fcc075f5f8caca1b3/$t",
        "lat": 59.201,
        "lon": 17.94155
    },
    {
        "name": "6yBgOQ",
        "map": "d1d/0f668ba62d9f199c98b27432/$t",
        "lat": 42.51597,
        "lon": 25.60547
    },
    {
        "name": "TR06Iw",
        "map": "d1d/4ddd54b9d4e80c06aaa6e401/$t",
        "lat": 61.4578,
        "lon": 23.88728
    },
    {
        "name": "moray23_wre_w",
        "map": "d1d/951eeeb54c0300d4a1b823fa/$t",
        "lat": 57.57773,
        "lon": -3.70332
    },
    {
        "name": "moray23_wre_m",
        "map": "d1d/6a40660c16b104468160d109/$t",
        "lat": 57.57773,
        "lon": -3.70332
    },
    {
        "name": "ZsFt7Q",
        "map": "d1d/42aa308a1abb50770d505444/$t",
        "lat": 59.25076,
        "lon": 17.89936
    },
    {
        "name": "uB6Vvw",
        "map": "d1d/e19423618f11df5b592439a7/$t",
        "lat": 50.33467,
        "lon": 17.15372
    },
    {
        "name": "x06oEw",
        "map": "d1d/a44ac5d5322aba543310ff60/$t",
        "lat": 61.42657,
        "lon": 23.89153
    },
    {
        "name": "JyS2vA",
        "map": "d1d/7961eaebdc623c6c611e5ad9/$t",
        "lat": 61.42279,
        "lon": 23.90171
    },
    {
        "name": "HsCA3Q",
        "map": "d1d/3e20b49305f94e2daf879fd4/E2_Sprint.All.jpg",
        "lat": 50.37132,
        "lon": 17.1867
    },
    {
        "name": "c8gKWw",
        "map": "d1d/eb8d8c255ccc647ac8f3d4a1/$t",
        "lat": 50.35807,
        "lon": 17.14961
    },
    {
        "name": "2EYgAg",
        "map": "d1d/0f668ba62d9f199c98b27432/$t",
        "lat": 43.03209,
        "lon": 25.3125
    },
    {
        "name": "8QCSxQ",
        "map": "d1d/3ce462733713913cf42c4523/$t",
        "lat": 50.35844,
        "lon": 17.14947
    },
    {
        "name": "MTBO2023relay",
        "map": "d1d/0663c3a43219830441fe379a/$t",
        "lat": 42.84579,
        "lon": 27.78984
    },
    {
        "name": "MTBO2023longM21E",
        "map": "d1d/ccb541be15a2ff27f7d6eb67/$t",
        "lat": 42.84944,
        "lon": 27.8268
    },
    {
        "name": "MTBO2023long_W21E",
        "map": "d1d/694883f474f252626bf50fb6/$t",
        "lat": 42.84944,
        "lon": 27.8268
    },
    {
        "name": "kololongbegun",
        "map": "d1d/7b3e0b8d69c4de19958a0c40/$t",
        "lat": 42.84944,
        "lon": 27.82792
    },
    {
        "name": "MTBO2023SprintW21E",
        "map": "d1d/6dc03d25640d2eda81c2f16e/$t",
        "lat": 42.88179,
        "lon": 27.89015
    },
    {
        "name": "MTBO2023Sprint_M21E",
        "map": "d1d/0d011d241609e275c329e173/$t",
        "lat": 42.88179,
        "lon": 27.89015
    },
    {
        "name": "ByalacupMTBO2023W21E",
        "map": "d1d/3bf90b2224e201d604cefe18/$t",
        "lat": 42.86645,
        "lon": 27.89179
    },
    {
        "name": "ByalacupMTBO2023_M21E",
        "map": "d1d/2c0557e6886fa8aa1842db6f/$t",
        "lat": 42.86645,
        "lon": 27.89179
    },
    {
        "name": "byalacup2023",
        "map": "d1d/6da550bf965dddfb366058ee/$t",
        "lat": 42.86645,
        "lon": 27.89179
    },
    {
        "name": "o2SYoQ",
        "map": "d1d/78c5bff51be7a87ae56fa084/$t",
        "lat": 62.21777,
        "lon": 10.75049
    },
    {
        "name": "t5jEGA",
        "map": "d1d/08dfe1facfcb97fdf28e45f9/$t",
        "lat": 62.50907,
        "lon": 11.51838
    },
    {
        "name": "Rfb8tw",
        "map": "d1d/c504a92da1dc77c6665587c1/$t",
        "lat": 62.41181,
        "lon": 11.10327
    },
    {
        "name": "MjXTaQ",
        "map": "d1d/5d41f264641c911b3e98484b/$t",
        "lat": 62.78303,
        "lon": 11.32679
    },
    {
        "name": "gBEsaQ",
        "map": "d1d/e2cc58ba60505599fd34f67a/$t",
        "lat": 62.59622,
        "lon": 11.13775
    },
    {
        "name": "El6Q-A",
        "map": "d1d/4176fcb4f66edaf7df6c3db5/$t",
        "lat": 62.67242,
        "lon": 11.39395
    },
    {
        "name": "CYrRzA",
        "map": "d1d/de4c5d0a9d46131e1bf0de5d/$t",
        "lat": 62.51872,
        "lon": 11.01088
    },
    {
        "name": "50vcMQ",
        "map": "d1d/0f668ba62d9f199c98b27432/$t",
        "lat": 43.11469,
        "lon": 25.37109
    },
    {
        "name": "zWtnzQ",
        "map": "d1d/e49e614adc5c72b29fa8ad81/Gabrovo_CUP_2023_SREDNA_W21.gif",
        "lat": 42.78249,
        "lon": 25.25059
    },
    {
        "name": "eTCEAQ",
        "map": "d1d/94d51721e78e45c156d7e2d3/Gabrovo_CUP_2023_SREDNA_M21.gif",
        "lat": 42.78249,
        "lon": 25.25059
    },
    {
        "name": "sgQJeA",
        "map": "d1d/7087a537a7ab266f39d4f0a1/$t",
        "lat": 42.78249,
        "lon": 25.25059
    },
    {
        "name": "Zg6Vdw",
        "map": "d1d/0f668ba62d9f199c98b27432/$t",
        "lat": 42.78249,
        "lon": 25.25059
    },
    {
        "name": "uW0v6w",
        "map": "d1d/84b181c58fadcb90c66a42ac/Gabrovo_CUP_2023_SPRINT_M21.gif",
        "lat": 42.87267,
        "lon": 25.30944
    },
    {
        "name": "ecfvxw",
        "map": "d1d/cae6ce39c1cc68bd8a3eb997/$t",
        "lat": 42.87267,
        "lon": 25.30944
    },
    {
        "name": "zARVxg",
        "map": "d1d/ea4c06b0416150583cbbe7b4/Gabrovo_CUP_2023_SPRINT_W21.gif",
        "lat": 42.87267,
        "lon": 25.30944
    },
    {
        "name": "Bjy--A",
        "map": "d1d/de493269420619791ea77f3a/$t",
        "lat": 42.87267,
        "lon": 25.30944
    },
    {
        "name": "2023JWOCrelayW3",
        "map": "d1d/ec4469eb64def5b19ec75fa0/$t",
        "lat": 47.62453,
        "lon": 23.81532
    },
    {
        "name": "2023JWOCrelayW2",
        "map": "d1d/ec4469eb64def5b19ec75fa0/$t",
        "lat": 47.62462,
        "lon": 23.81532
    },
    {
        "name": "2023JWOCrelayW1",
        "map": "d1d/ec4469eb64def5b19ec75fa0/$t",
        "lat": 47.62459,
        "lon": 23.81527
    },
    {
        "name": "2023JWOCrelayM3",
        "map": "d1d/1223d34846964ad5f0cec5f6/$t",
        "lat": 47.62465,
        "lon": 23.81527
    },
    {
        "name": "2023JWOCrelayM2",
        "map": "d1d/1223d34846964ad5f0cec5f6/$t",
        "lat": 47.62459,
        "lon": 23.81506
    },
    {
        "name": "2023JWOCrelayM1",
        "map": "d1d/1223d34846964ad5f0cec5f6/$t",
        "lat": 47.62477,
        "lon": 23.8151
    },
    {
        "name": "2023JWOClongM",
        "map": "d1d/d8dd881372f0e6774dd48012/$t",
        "lat": 47.62578,
        "lon": 23.83255
    },
    {
        "name": "2023JWOClongW",
        "map": "d1d/792c24170ee8958579870577/$t",
        "lat": 47.62925,
        "lon": 23.8315
    },
    {
        "name": "sommer23Vardasen",
        "map": "d1d/12fb60572c3ba27227d4111d/$t",
        "lat": 59.35927,
        "lon": 10.68167
    },
    {
        "name": "b0gGXQ",
        "map": "d1d/ad8733157719b6f33a8ebc28/$t",
        "lat": 46.49695,
        "lon": 9.87286
    },
    {
        "name": "2023JWOCmiddleM",
        "map": "d1d/67ba28e39576cb9f73c46575/$t",
        "lat": 47.63066,
        "lon": 23.82752
    },
    {
        "name": "2023JWOCmiddleW",
        "map": "d1d/ed425ae862b0e88e702b3a09/$t",
        "lat": 47.63066,
        "lon": 23.82752
    },
    {
        "name": "2023JWOCsprintrelay4",
        "map": "d1d/0d9035e4f832cdd7096fba5b/$t",
        "lat": 47.64958,
        "lon": 23.57356
    },
    {
        "name": "2023JWOCsprintrelay3",
        "map": "d1d/e6884457cb4f869f4a3dd41e/$t",
        "lat": 47.64957,
        "lon": 23.57356
    },
    {
        "name": "2023JWOCsprintrelay2",
        "map": "d1d/e6884457cb4f869f4a3dd41e/$t",
        "lat": 47.64957,
        "lon": 23.57356
    },
    {
        "name": "2023JWOCsprintrelay1",
        "map": "d1d/0d9035e4f832cdd7096fba5b/$t",
        "lat": 47.64958,
        "lon": 23.57356
    },
    {
        "name": "TB-Valbiom",
        "map": "d1d/1e5af25a56e0cf15840b2bbb/$t",
        "lat": 50.43627,
        "lon": 4.80181
    },
    {
        "name": "2023JWOCsprintW",
        "map": "d1d/d076c91c2c2a8b2ea70326bf/$t",
        "lat": 47.65048,
        "lon": 23.56412
    },
    {
        "name": "2023JWOCsprintM",
        "map": "d1d/1743d9c9677db80d71201e4a/$t",
        "lat": 47.65047,
        "lon": 23.56416
    },
    {
        "name": "sg23-4-D1314",
        "map": "d1d/8e7f292eaf1177d20e2390a6/$t",
        "lat": 58.49631,
        "lon": 8.79016
    },
    {
        "name": "sg23-4-H1314",
        "map": "d1d/8e7f292eaf1177d20e2390a6/$t",
        "lat": 58.49612,
        "lon": 8.78965
    },
    {
        "name": "sg23-4-D1516",
        "map": "d1d/cd10928dede9107938f138a1/$t",
        "lat": 58.49605,
        "lon": 8.78987
    },
    {
        "name": "sg23-4-H1516",
        "map": "d1d/30ddd8078604543def7a8e2d/$t",
        "lat": 58.49593,
        "lon": 8.79102
    },
    {
        "name": "sg23-3-D1314",
        "map": "d1d/00ffd1b925e5c57890730cbe/$t",
        "lat": 58.49075,
        "lon": 8.80548
    },
    {
        "name": "sg23-3-H1314",
        "map": "d1d/00ffd1b925e5c57890730cbe/$t",
        "lat": 58.48911,
        "lon": 8.80754
    },
    {
        "name": "sg23-3-D1516",
        "map": "d1d/ce12dcfc72b90db1f039e076/$t",
        "lat": 58.48857,
        "lon": 8.80711
    },
    {
        "name": "sg23-3-H1516",
        "map": "d1d/0d5fdf37f3590231415279e7/$t",
        "lat": 58.48893,
        "lon": 8.80685
    },
    {
        "name": "sg23-2-D1314",
        "map": "d1d/3607e9e0d1ccc9e6615ce6d2/$t",
        "lat": 58.3759,
        "lon": 8.69634
    },
    {
        "name": "sg23-2-H1314",
        "map": "d1d/3607e9e0d1ccc9e6615ce6d2/$t",
        "lat": 58.376,
        "lon": 8.69614
    },
    {
        "name": "sg23-2-D1516",
        "map": "d1d/beddd0904029f573ebca1fb4/$t",
        "lat": 58.377,
        "lon": 8.69751
    },
    {
        "name": "sg23-2-H1516",
        "map": "d1d/b9e55d27675ba76f0a8bb599/$t",
        "lat": 58.3776,
        "lon": 8.70067
    },
    {
        "name": "sg23-1-D1314",
        "map": "d1d/dbd7e73967ec1f580681b7f5/$t",
        "lat": 58.37841,
        "lon": 8.68333
    },
    {
        "name": "sg23-1-H1516",
        "map": "d1d/0cc2f94928f44a1fbd83f7ae/$t",
        "lat": 58.37784,
        "lon": 8.68365
    },
    {
        "name": "sg23-1-D1516",
        "map": "d1d/07fc7e8628899a7b43322108/$t",
        "lat": 58.3782,
        "lon": 8.6836
    },
    {
        "name": "sg23-1-H1314",
        "map": "d1d/dbd7e73967ec1f580681b7f5/$t",
        "lat": 58.37873,
        "lon": 8.68224
    },
    {
        "name": "autwoc11",
        "map": "d1d/467fb3810549d5bd0d949f6f/$t",
        "lat": 46.79384,
        "lon": 9.71093
    },
    {
        "name": "autwoc10",
        "map": "d1d/735431d60070a38530fb0f7f/$t",
        "lat": 46.79485,
        "lon": 9.68288
    },
    {
        "name": "autwoc09",
        "map": "d1d/687d36c24a5c820b5e15f3a9/$t",
        "lat": 46.83423,
        "lon": 9.2764
    },
    {
        "name": "autwoc08",
        "map": "d1d/98392a946f3244149ae5fb22/$t",
        "lat": 46.76701,
        "lon": 9.66124
    },
    {
        "name": "autwoc07",
        "map": "d1d/56310c72a50049717d90e2ed/$t",
        "lat": 46.82538,
        "lon": 9.351
    },
    {
        "name": "autwoc05",
        "map": "d1d/1d20690576703055b7fb28e4/$t",
        "lat": 46.79609,
        "lon": 9.19621
    },
    {
        "name": "2023-06-25-Ofest-lang-H21",
        "map": "d1d/a2686f1206e93ad5c5615b7e/$t",
        "lat": 59.84219,
        "lon": 10.86721
    },
    {
        "name": "2023-06-25-Ofest-lang-H1920",
        "map": "d1d/c43002c31806e7ba151eef35/$t",
        "lat": 59.84222,
        "lon": 10.86685
    },
    {
        "name": "2023-06-25-Ofest-lang-D21",
        "map": "d1d/4c99a9358c3e35422285befb/$t",
        "lat": 59.84206,
        "lon": 10.86712
    },
    {
        "name": "2023-06-25-Ofest-lang-D1920",
        "map": "d1d/f1b2db8e7b81e69c36171379/$t",
        "lat": 59.84222,
        "lon": 10.86715
    },
    {
        "name": "2023-06-25-Ofest-lang-H1718",
        "map": "d1d/cda1558e6899b00191a296bf/$t",
        "lat": 59.84216,
        "lon": 10.86681
    },
    {
        "name": "2023-06-25-Ofest-lang-D1718",
        "map": "d1d/937626914e6dd32fb81c4b1a/$t",
        "lat": 59.84213,
        "lon": 10.86709
    },
    {
        "name": "yLF-0A",
        "map": "d1d/cd09afe0c415204d85562c32/$t",
        "lat": 42.0335,
        "lon": 23.97376
    },
    {
        "name": "autwoc04",
        "map": "d1d/0883f8300cd383282d3fad1e/$t",
        "lat": 46.82175,
        "lon": 9.35865
    },
    {
        "name": "2023EYOCrelayW16-3",
        "map": "d1d/253701f99af661347ab9a779/Relay_W16.gif",
        "lat": 42.03322,
        "lon": 23.97399
    },
    {
        "name": "2023EYOCrelayM16-3",
        "map": "d1d/ae8f7e7fc74387b767c55978/Relay_M16.gif",
        "lat": 42.03355,
        "lon": 23.97353
    },
    {
        "name": "2023EYOCrelayW18-3",
        "map": "d1d/7b9b78d509f2066f0a177d35/Relay_W18.gif",
        "lat": 42.03329,
        "lon": 23.97636
    },
    {
        "name": "eJOFJg",
        "map": "d1d/80cafb36970fa5a9667e28b0/$t",
        "lat": 46.00434,
        "lon": 11.37556
    },
    {
        "name": "4G6wvA",
        "map": "d1d/1cef1509cf204ddd22f04a60/$t",
        "lat": 46.00563,
        "lon": 11.40149
    },
    {
        "name": "2023EYOCrelayM18-3",
        "map": "d1d/89888f5d3f6ecacfca99ee2c/Relay_M18.gif",
        "lat": 42.03357,
        "lon": 23.97647
    },
    {
        "name": "2023EYOCrelayW16-2",
        "map": "d1d/253701f99af661347ab9a779/Relay_W16.gif",
        "lat": 42.03356,
        "lon": 23.97364
    },
    {
        "name": "2023EYOCrelayM16-2",
        "map": "d1d/ae8f7e7fc74387b767c55978/Relay_M16.gif",
        "lat": 42.03353,
        "lon": 23.97356
    },
    {
        "name": "2023EYOCrelayW18-2",
        "map": "d1d/7b9b78d509f2066f0a177d35/Relay_W18.gif",
        "lat": 42.03334,
        "lon": 23.97641
    },
    {
        "name": "2023EYOCrelayM18-2",
        "map": "d1d/89888f5d3f6ecacfca99ee2c/Relay_M18.gif",
        "lat": 42.03362,
        "lon": 23.97637
    },
    {
        "name": "2023EYOCrelayW16-1",
        "map": "d1d/253701f99af661347ab9a779/Relay_W16.gif",
        "lat": 42.03362,
        "lon": 23.97355
    },
    {
        "name": "2023EYOCrelayM16-1",
        "map": "d1d/ae8f7e7fc74387b767c55978/Relay_M16.gif",
        "lat": 42.0335,
        "lon": 23.97353
    },
    {
        "name": "2023EYOCrelayW18-1",
        "map": "d1d/7b9b78d509f2066f0a177d35/Relay_W18.gif",
        "lat": 42.03341,
        "lon": 23.97648
    },
    {
        "name": "2023EYOCrelayM18-1",
        "map": "d1d/89888f5d3f6ecacfca99ee2c/Relay_M18.gif",
        "lat": 42.03363,
        "lon": 23.97604
    },
    {
        "name": "autwoc03",
        "map": "d1d/20f44a48e487a350c8a91197/$t",
        "lat": 46.80021,
        "lon": 9.28142
    },
    {
        "name": "1oMtnQ",
        "map": "d1d/881388c0abe5526085d0469b/$t",
        "lat": 42.04194,
        "lon": 23.9649
    },
    {
        "name": "2023-06-24-Ofest-mellom-D21",
        "map": "d1d/25fb190385f82e05adc7f72f/$t",
        "lat": 59.84215,
        "lon": 10.86688
    },
    {
        "name": "2023-06-24-Ofest-mellom-H21",
        "map": "d1d/ef75a20d6c5d952114d752e1/$t",
        "lat": 59.84218,
        "lon": 10.86682
    },
    {
        "name": "2023-06-24-Ofest-mellom-H1920",
        "map": "d1d/9bbb52092188b4bdfc52166e/$t",
        "lat": 59.8419,
        "lon": 10.86688
    },
    {
        "name": "2023-06-24-Ofest-mellom-D1920",
        "map": "d1d/c51cfaa1659e5458236ff20e/$t",
        "lat": 59.84203,
        "lon": 10.86711
    },
    {
        "name": "autwoc02",
        "map": "d1d/5d975ebff4652cbd679dc6a7/$t",
        "lat": 46.82947,
        "lon": 9.31701
    },
    {
        "name": "2023EYOClongW18",
        "map": "d1d/0c141363115bd8a868132cb8/W18.gif",
        "lat": 42.04194,
        "lon": 23.9649
    },
    {
        "name": "2023EYOClongM18",
        "map": "d1d/c8dae66ab97b2cd1f185320a/M18.gif",
        "lat": 42.04194,
        "lon": 23.9649
    },
    {
        "name": "2023EYOClongW16",
        "map": "d1d/db806458785cd7e638cd75d7/W16.gif",
        "lat": 42.04194,
        "lon": 23.9649
    },
    {
        "name": "2023EYOClongM16",
        "map": "d1d/f9b982b17c98262dff311a99/M16.gif",
        "lat": 42.04194,
        "lon": 23.9649
    },
    {
        "name": "2023-06-23-Ofest-sprint-H21",
        "map": "d1d/f17cdbbc44aa218388c26e3c/$t",
        "lat": 59.88378,
        "lon": 10.85793
    },
    {
        "name": "2023-06-23-Ofest-sprint-D21",
        "map": "d1d/ccc25c4b5743924739a1478a/$t",
        "lat": 59.88389,
        "lon": 10.85784
    },
    {
        "name": "2023-06-23-Ofest-sprint-H1718",
        "map": "d1d/9be6dd61c0f84e03972d623a/$t",
        "lat": 59.88378,
        "lon": 10.85797
    },
    {
        "name": "2023-06-23-Ofest-sprint-D1718",
        "map": "d1d/9e6320f105e9b11198db4d0f/$t",
        "lat": 59.88377,
        "lon": 10.85781
    },
    {
        "name": "rbdLnQ",
        "map": "d1d/2ba3a6f1aaf253e3ffc09a8b/$t",
        "lat": 42.02977,
        "lon": 23.99024
    },
    {
        "name": "2023EYOCsprintW16",
        "map": "d1d/17ab6bc127450f65b6ed8dc1/W16.gif",
        "lat": 42.02952,
        "lon": 23.98909
    },
    {
        "name": "2023EYOCsprintW18",
        "map": "d1d/0d7a968d33d6da4e56ee687e/W18.gif",
        "lat": 42.0295,
        "lon": 23.98906
    },
    {
        "name": "2023EYOCsprintM16",
        "map": "d1d/d20e63e9d07684d3c6e34ea5/M16.gif",
        "lat": 42.02956,
        "lon": 23.98907
    },
    {
        "name": "2023EYOCsprintM18",
        "map": "d1d/2027ddcb18934568187dfa22/M18.gif",
        "lat": 42.02952,
        "lon": 23.98904
    },
    {
        "name": "2023-06-21-NMsprint-D21",
        "map": "d1d/dcd1c6f4b24bc6c2dd380b95/$t",
        "lat": 63.42799,
        "lon": 10.3852
    },
    {
        "name": "2023-06-21-NMsprint-H21",
        "map": "d1d/9fd427ef96ad86ac71a02072/$t",
        "lat": 63.42799,
        "lon": 10.3852
    },
    {
        "name": "m6heKA",
        "map": "d1d/3d7401bd402d710eebdb9505/$t",
        "lat": 46.19548,
        "lon": 11.68132
    },
    {
        "name": "HO6etQ",
        "map": "d1d/0bcae111d6a0961bbfdebf47/$t",
        "lat": 46.19545,
        "lon": 11.68119
    },
    {
        "name": "BUL_Selection_race_long_women",
        "map": "d1d/22a4ac716f8ce1491f2c65fb/$t",
        "lat": 46.82015,
        "lon": 9.42122
    },
    {
        "name": "BUL_Selection_race_long_men",
        "map": "d1d/a556518861b0d16d5d71445b/$t",
        "lat": 46.81818,
        "lon": 9.42029
    },
    {
        "name": "BUL_Selection_race_middle",
        "map": "d1d/6874784633fe6922716026e5/$t",
        "lat": 46.83008,
        "lon": 9.31414
    },
    {
        "name": "vFR0Rg",
        "map": "d1d/e738462260c70aa137fd551c/$t",
        "lat": 47.07217,
        "lon": 15.44253
    },
    {
        "name": "D9Ub4w",
        "map": "d1d/e738462260c70aa137fd551c/$t",
        "lat": 47.07217,
        "lon": 15.44253
    },
    {
        "name": "5JHb5Q",
        "map": "d1d/11cd45f86aadf1295fa96ab7/$t",
        "lat": 47.07225,
        "lon": 15.44253
    },
    {
        "name": "HokMtA",
        "map": "d1d/11cd45f86aadf1295fa96ab7/$t",
        "lat": 47.07225,
        "lon": 15.44253
    },
    {
        "name": "_FHf-Q",
        "map": "d1d/2834f146104f18d29faf92d2/$t",
        "lat": 47.07225,
        "lon": 15.44253
    },
    {
        "name": "v5R8Pg",
        "map": "d1d/d49fdac108035c09e6956e02/$t",
        "lat": 47.07225,
        "lon": 15.44253
    },
    {
        "name": "finals",
        "map": "d1d/bb1fd30687322c62afb2ede6/$t",
        "lat": 45.73645,
        "lon": 10.94341
    },
    {
        "name": "sfwomen",
        "map": "d1d/ced23da47fa34f749254b469/$t",
        "lat": 45.73647,
        "lon": 10.94343
    },
    {
        "name": "sfmen",
        "map": "d1d/ced23da47fa34f749254b469/$t",
        "lat": 45.73647,
        "lon": 10.94344
    },
    {
        "name": "qfwomen",
        "map": "d1d/c70cf8bd7cdf7f91d96ce30e/$t",
        "lat": 45.73649,
        "lon": 10.94345
    },
    {
        "name": "qfmen",
        "map": "d1d/c70cf8bd7cdf7f91d96ce30e/$t",
        "lat": 45.73648,
        "lon": 10.94343
    },
    {
        "name": "kfT8QA",
        "map": "d1d/5a867789a79aedb3b33d182c/02_Resilovo_map_1-7500_297x210mm_Scorelauf_Mother.jpg",
        "lat": 42.25973,
        "lon": 23.20031
    },
    {
        "name": "quali",
        "map": "d1d/3140d304cfca03734f2bd068/$t",
        "lat": 45.91818,
        "lon": 11.06387
    },
    {
        "name": "9sKfLQ",
        "map": "d1d/7d1c73a5c6bb9ea2439c5a83/01_Resilovo_map_1-7500_297x210mm_Middle_Mother.jpg",
        "lat": 42.25973,
        "lon": 23.2003
    },
    {
        "name": "23klubbKMs",
        "map": "d1d/474ff812897ad97f67311193/$t",
        "lat": 59.05773,
        "lon": 11.4718
    },
    {
        "name": "Rl2qrA",
        "map": "d1d/c31146c1960535c3a61d6ffb/$t",
        "lat": 59.17424,
        "lon": 11.42947
    },
    {
        "name": "Gfa_HA",
        "map": "d1d/776c77a9dc93d802a9868ca8/$t",
        "lat": 50.83937,
        "lon": 15.4506
    },
    {
        "name": "0YOxDg",
        "map": "d1d/dbd49f8af86246e8b08e0d49/$t",
        "lat": 46.79809,
        "lon": 10.2405
    },
    {
        "name": "F3_2hg",
        "map": "d1d/ceb15b027e6a78518c2520af/$t",
        "lat": 46.79809,
        "lon": 10.2405
    },
    {
        "name": "6B6wNA",
        "map": "d1d/101151d298eb8bf030976958/$t",
        "lat": 39.75059,
        "lon": -8.80844
    },
    {
        "name": "W9LOIw",
        "map": "d1d/8fc6439c96607201cd0604b5/$t",
        "lat": 39.75059,
        "lon": -8.80844
    },
    {
        "name": "ktnS1Q",
        "map": "d1d/5055d809015c674fef456c99/$t",
        "lat": 39.75059,
        "lon": -8.80844
    },
    {
        "name": "yXfbTQ",
        "map": "d1d/956e125e9b83e89501ae85d1/$t",
        "lat": 39.75719,
        "lon": -8.80151
    },
    {
        "name": "qMzs9Q",
        "map": "d1d/e5f5f43e4d6313002f4bc770/$t",
        "lat": 39.75713,
        "lon": -8.80151
    },
    {
        "name": "WA0w4Q",
        "map": "d1d/8835e0b7d0802221cc0418b5/$t",
        "lat": 39.75719,
        "lon": -8.80151
    },
    {
        "name": "FvXlFA",
        "map": "d1d/79f2ac1e9659f8e75685c5ff/$t",
        "lat": 39.75713,
        "lon": -8.8015
    },
    {
        "name": "mottolino-we",
        "map": "d1d/dc8c0d0a0b92c1e799e3d248/$t",
        "lat": 46.53845,
        "lon": 10.15411
    },
    {
        "name": "mottolino-me",
        "map": "d1d/84d3d9eb85bbdb15bd48790c/$t",
        "lat": 46.53583,
        "lon": 10.15345
    },
    {
        "name": "mTUNKQ",
        "map": "d1d/9bdf68c16ef7a1e047900403/$t",
        "lat": 46.80341,
        "lon": 9.28635
    },
    {
        "name": "Tx9LIQ",
        "map": "d1d/1930f99e2477f8a399b3c456/$t",
        "lat": 46.80341,
        "lon": 9.28635
    },
    {
        "name": "1O0xFg",
        "map": "d1d/0f3324ec238f6166288d68b2/$t",
        "lat": 42.28093,
        "lon": 23.61031
    },
    {
        "name": "KDM_CA",
        "map": "d1d/0f3324ec238f6166288d68b2/$t",
        "lat": 42.28016,
        "lon": 23.61135
    },
    {
        "name": "Zwuk2Q",
        "map": "d1d/0f3324ec238f6166288d68b2/$t",
        "lat": 42.28023,
        "lon": 23.61172
    },
    {
        "name": "mLKnnA",
        "map": "d1d/565b2b5737dce870ab8a9b9b/$t",
        "lat": 39.69175,
        "lon": -9.00194
    },
    {
        "name": "flimsunoM",
        "map": "d1d/568b649bd62a12094fb3b81d/map.png",
        "lat": 46.83611,
        "lon": 9.27269
    },
    {
        "name": "flimsunoW",
        "map": "d1d/eee38ca8f99037acf8f8b79a/map.png",
        "lat": 46.83611,
        "lon": 9.27269
    },
    {
        "name": "iL41IA",
        "map": "d1d/621254713bba01abf9bbb9e6/$t",
        "lat": 39.69175,
        "lon": -9.00194
    },
    {
        "name": "YeheDg",
        "map": "d1d/fb21c1fc2b15230643494547/$t",
        "lat": 42.27807,
        "lon": 23.6164
    },
    {
        "name": "passo-eira-m20",
        "map": "d1d/4d7ed4e4d77b132932ba10c8/$t",
        "lat": 46.54002,
        "lon": 10.16488
    },
    {
        "name": "passo-eira-w20",
        "map": "d1d/b7cb98bf710b13f73394691c/$t",
        "lat": 46.54003,
        "lon": 10.16488
    },
    {
        "name": "oY1fuQ",
        "map": "d1d/fb21c1fc2b15230643494547/$t",
        "lat": 42.28313,
        "lon": 23.61513
    },
    {
        "name": "kt4z1Q",
        "map": "d1d/fb21c1fc2b15230643494547/$t",
        "lat": 42.27515,
        "lon": 23.61842
    },
    {
        "name": "livigno-sprint-relay",
        "map": "d1d/e8a6139d7e7170bca79924f2/$t",
        "lat": 46.54317,
        "lon": 10.14047
    },
    {
        "name": "1NxuMg",
        "map": "d1d/178521a9f2bf3e2a5d86998b/$t",
        "lat": 42.28313,
        "lon": 23.61513
    },
    {
        "name": "h30A9g",
        "map": "d1d/178521a9f2bf3e2a5d86998b/$t",
        "lat": 42.28369,
        "lon": 23.60537
    },
    {
        "name": "MEziyQ",
        "map": "d1d/178521a9f2bf3e2a5d86998b/$t",
        "lat": 42.28815,
        "lon": 23.602
    },
    {
        "name": "5L8M8w",
        "map": "d1d/533d75e558fe6d9e537329ff/$t",
        "lat": 59.97019,
        "lon": 10.74458
    },
    {
        "name": "2023-05-29-D1720-mellom",
        "map": "d1d/d8c2cff72f2bff208f1017cb/$t",
        "lat": 59.66303,
        "lon": 9.62291
    },
    {
        "name": "2023-05-29-H1720-mellom",
        "map": "d1d/ab1351135be7c97560ca2e49/$t",
        "lat": 59.66251,
        "lon": 9.62274
    },
    {
        "name": "MACM23",
        "map": "d1d/b591cdc79e906ad8783d74f9/$t",
        "lat": 47.32004,
        "lon": 10.82075
    },
    {
        "name": "WACM23",
        "map": "d1d/7ba59ce2c93e9edfa3dcd4ac/$t",
        "lat": 47.32005,
        "lon": 10.82077
    },
    {
        "name": "2023-05-28-D1720-lang",
        "map": "d1d/bb51ef2a7886b8e37af23b2d/$t",
        "lat": 59.66269,
        "lon": 9.62256
    },
    {
        "name": "4-shng",
        "map": "d1d/0f4399fa670621aca8f3ccc3/$t",
        "lat": 59.21183,
        "lon": 18.03404
    },
    {
        "name": "2023-05-28-H1720-lang",
        "map": "d1d/b426651921b3cc8e0c82a934/$t",
        "lat": 59.66269,
        "lon": 9.62188
    },
    {
        "name": "HSqjcA",
        "map": "d1d/7012aca638c0a543d6956fdf/$t",
        "lat": 43.08604,
        "lon": 25.19259
    },
    {
        "name": "eyoc_camp_long",
        "map": "d1d/7d4f61a6829802c773fccacb/$t",
        "lat": 46.14704,
        "lon": 11.82462
    },
    {
        "name": "eyoc_camp_relay",
        "map": "d1d/9a544288fb356b8c485c6b67/$t",
        "lat": 46.13036,
        "lon": 11.84877
    },
    {
        "name": "uenIJA",
        "map": "d1d/b36b59a66d9e3d0f6edc5fc9/$t",
        "lat": 43.08438,
        "lon": 25.19636
    },
    {
        "name": "eyoc_camp_sprint",
        "map": "d1d/13ebbd1df1b732a4c84f150c/$t",
        "lat": 46.15483,
        "lon": 11.80915
    },
    {
        "name": "IqwV0Q",
        "map": "d1d/c63b0c2de5351fc1898e5e66/$t",
        "lat": 59.17275,
        "lon": 11.44805
    },
    {
        "name": "TxH7dw",
        "map": "d1d/0117947bb2148806d823f509/tile_0_0.png",
        "lat": 43.03209,
        "lon": 25.13672
    },
    {
        "name": "l9XZkg",
        "map": "d1d/994df5a578964bfe562c4133/$t",
        "lat": 58.97088,
        "lon": 14.99886
    },
    {
        "name": "9ct1Sg",
        "map": "d1d/fc41048d52e4b6f2fdc4fc63/$t",
        "lat": 58.97088,
        "lon": 14.99886
    },
    {
        "name": "okm2305",
        "map": "d1d/e0b0596e55683045fde80a3a/$t",
        "lat": 59.34904,
        "lon": 11.18194
    },
    {
        "name": "5a-FZw",
        "map": "d1d/1e61eefad3fb9b65dec25b1b/$t",
        "lat": 46.80446,
        "lon": 11.89346
    },
    {
        "name": "Lm3UeA",
        "map": "d1d/7cd398f9356df16727da33b7/$t",
        "lat": 46.80447,
        "lon": 11.89357
    },
    {
        "name": "o0f0iQ",
        "map": "d1d/b6facab5a293a35fb2edb680/$t",
        "lat": 46.80445,
        "lon": 11.89354
    },
    {
        "name": "ZXOj_g",
        "map": "d1d/339e12a8f21726998d8c78c4/$t",
        "lat": 46.80438,
        "lon": 11.89372
    },
    {
        "name": "langen",
        "map": "d1d/b6facab5a293a35fb2edb680/$t",
        "lat": 46.80445,
        "lon": 11.89354
    },
    {
        "name": "UUGhlA",
        "map": "d1d/8364bc4779c81e4fddb42249/$t",
        "lat": 43.34445,
        "lon": 24.65
    },
    {
        "name": "2M1rrw",
        "map": "d1d/f41c8fcb257b7b247a28e9bc/$t",
        "lat": 59.21231,
        "lon": 17.97158
    },
    {
        "name": "m1mnnQ",
        "map": "d1d/e0e80d2ccec7c47314830aff/$t",
        "lat": 42.51285,
        "lon": 24.60576
    },
    {
        "name": "oNPVLw",
        "map": "d1d/f41c8fcb257b7b247a28e9bc/$t",
        "lat": 59.21231,
        "lon": 17.97158
    },
    {
        "name": "hidICw",
        "map": "d1d/e0e80d2ccec7c47314830aff/$t",
        "lat": 42.50968,
        "lon": 24.6085
    },
    {
        "name": "hod-Bg",
        "map": "d1d/4a12e31cb2d83a1fee51b075/$t",
        "lat": 59.28911,
        "lon": 14.86058
    },
    {
        "name": "p0Ycmw",
        "map": "d1d/7cba82bf510106e9c1c8be6c/$t",
        "lat": 42.20987,
        "lon": 25.75195
    },
    {
        "name": "x4w-Xg",
        "map": "d1d/4eed4ec2b949f916b7d94c6f/$t",
        "lat": 59.64009,
        "lon": 9.56981
    },
    {
        "name": "0zuYKA",
        "map": "d1d/f2d26652e3386aebc075824a/$t",
        "lat": 59.68432,
        "lon": 9.655
    },
    {
        "name": "vP3YIg",
        "map": "d1d/c3fe6026e2545da9cb7b3fe2/$t",
        "lat": 59.62612,
        "lon": 9.68492
    },
    {
        "name": "Eezmeg",
        "map": "d1d/1f656ffafe2292d344ff39a5/$t",
        "lat": 53.4922,
        "lon": 14.52045
    },
    {
        "name": "userie2-2023",
        "map": "d1d/53ab1de7906880c6cd1d70e9/$t",
        "lat": 59.12941,
        "lon": 11.45346
    },
    {
        "name": "bURC_g",
        "map": "d1d/53ab1de7906880c6cd1d70e9/$t",
        "lat": 59.12941,
        "lon": 11.45346
    },
    {
        "name": "2023-05-07-NMsprintstafett-etp4",
        "map": "d1d/658310b8a25100bc07317812/$t",
        "lat": 59.48854,
        "lon": 10.31715
    },
    {
        "name": "2023-05-07-NMsprintstafett-etp3",
        "map": "d1d/4ae8e45e101ed147be48f643/$t",
        "lat": 59.48845,
        "lon": 10.31758
    },
    {
        "name": "ragoWE",
        "map": "d1d/d8ad38a5973e51f9f583601a/$t",
        "lat": 46.17413,
        "lon": 12.98483
    },
    {
        "name": "ragoME",
        "map": "d1d/e0cc77d98338423af77f11d7/$t",
        "lat": 46.17384,
        "lon": 12.985
    },
    {
        "name": "cupaBM2023spm",
        "map": "d1d/f78dd31d516aca2e76451f94/Trasee_finale.H.gif",
        "lat": 47.64677,
        "lon": 23.55983
    },
    {
        "name": "cupaBM2023spw",
        "map": "d1d/53b07532e2a8703c40b9a354/Trasee_finale.G.gif",
        "lat": 47.64677,
        "lon": 23.55983
    },
    {
        "name": "2023-05-06-knockout-H21",
        "map": "d1d/a016fcba92bc6e7af6321f48/$t",
        "lat": 59.12798,
        "lon": 10.18004
    },
    {
        "name": "2023-05-06-knockout-D21",
        "map": "d1d/ce414cf56353fd8bb58e4b76/$t",
        "lat": 59.12808,
        "lon": 10.18006
    },
    {
        "name": "2023-05-06-knockout-H1718",
        "map": "d1d/a016fcba92bc6e7af6321f48/$t",
        "lat": 59.12803,
        "lon": 10.17993
    },
    {
        "name": "2023-05-06-knockout-D1718",
        "map": "d1d/ce414cf56353fd8bb58e4b76/$t",
        "lat": 59.12809,
        "lon": 10.17988
    },
    {
        "name": "2023-05-06-knockout-H1920",
        "map": "d1d/a016fcba92bc6e7af6321f48/$t",
        "lat": 59.12808,
        "lon": 10.18002
    },
    {
        "name": "2023-05-06-knockout-D1920",
        "map": "d1d/ce414cf56353fd8bb58e4b76/$t",
        "lat": 59.12815,
        "lon": 10.18
    },
    {
        "name": "palmaWE",
        "map": "d1d/e4f750257769913fab377cc8/$t",
        "lat": 45.91153,
        "lon": 13.31804
    },